[
  {
    "city": "New York City",
    "state": "New York",
    "population": 7936530,
    "region": "West",
    "weather": "Warm",
    "latitude": 40.6627,
    "longitude": -73.9387,
    "loyalty": 10,
    "media_pressure": 9,
    "cost_of_living": 7,
    "stadium_quality": 7
  },
  {
    "city": "Los Angeles",
    "state": "California",
    "population": 3770958,
    "region": "West",
    "weather": "Warm",
    "latitude": 34.0194,
    "longitude": -118.411,
    "loyalty": 5,
    "media_pressure": 3,
    "cost_of_living": 9,
    "stadium_quality": 10
  },
  {
    "city": "Chicago",
    "state": "Illinois",
    "population": 2611867,
    "region": "West",
    "weather": "Warm",
    "latitude": 41.837,
    "longitude": -87.6849,
    "loyalty": 6,
    "media_pressure": 6,
    "cost_of_living": 4,
    "stadium_quality": 6
  },
  {
    "city": "Houston",
    "state": "Texas",
    "population": 2324082,
    "region": "West",
    "weather": "Warm",
    "latitude": 29.7857,
    "longitude": -95.3888,
    "loyalty": 4,
    "media_pressure": 6,
    "cost_of_living": 8,
    "stadium_quality": 8
  },
  {
    "city": "Phoenix",
    "state": "Arizona",
    "population": 1675144,
    "region": "West",
    "weather": "Warm",
    "latitude": 33.5722,
    "longitude": -112.09,
    "loyalty": 8,
    "media_pressure": 9,
    "cost_of_living": 10,
    "stadium_quality": 10
  },
  {
    "city": "San Antonio",
    "state": "Texas",
    "population": 1532653,
    "region": "West",
    "weather": "Warm",
    "latitude": 29.4628,
    "longitude": -98.5246,
    "loyalty": 9,
    "media_pressure": 9,
    "cost_of_living": 4,
    "stadium_quality": 6
  },
  {
    "city": "Philadelphia",
    "state": "Pennsylvania",
    "population": 1517114,
    "region": "West",
    "weather": "Warm",
    "latitude": 40.0094,
    "longitude": -75.1333,
    "loyalty": 5,
    "media_pressure": 6,
    "cost_of_living": 5,
    "stadium_quality": 9
  },
  {
    "city": "San Diego",
    "state": "California",
    "population": 1389672,
    "region": "West",
    "weather": "Warm",
    "latitude": 32.815,
    "longitude": -117.136,
    "loyalty": 6,
    "media_pressure": 2,
    "cost_of_living": 10,
    "stadium_quality": 7
  },
  {
    "city": "Dallas",
    "state": "Texas",
    "population": 1302638,
    "region": "West",
    "weather": "Warm",
    "latitude": 32.7933,
    "longitude": -96.7665,
    "loyalty": 9,
    "media_pressure": 2,
    "cost_of_living": 10,
    "stadium_quality": 7
  },
  {
    "city": "Fort Worth",
    "state": "Texas",
    "population": 1015045,
    "region": "West",
    "weather": "Warm",
    "latitude": 32.782,
    "longitude": -97.3486,
    "loyalty": 5,
    "media_pressure": 3,
    "cost_of_living": 10,
    "stadium_quality": 7
  },
  {
    "city": "Jacksonville",
    "state": "Florida",
    "population": 1008485,
    "region": "West",
    "weather": "Warm",
    "latitude": 30.3369,
    "longitude": -81.6616,
    "loyalty": 10,
    "media_pressure": 10,
    "cost_of_living": 6,
    "stadium_quality": 9
  },
  {
    "city": "Austin",
    "state": "Texas",
    "population": 989252,
    "region": "West",
    "weather": "Warm",
    "latitude": 30.2986,
    "longitude": -97.7541,
    "loyalty": 9,
    "media_pressure": 6,
    "cost_of_living": 9,
    "stadium_quality": 7
  },
  {
    "city": "San Jose",
    "state": "California",
    "population": 943212,
    "region": "West",
    "weather": "Warm",
    "latitude": 37.296,
    "longitude": -121.815,
    "loyalty": 6,
    "media_pressure": 2,
    "cost_of_living": 3,
    "stadium_quality": 5
  },
  {
    "city": "Charlotte",
    "state": "North Carolina",
    "population": 935017,
    "region": "West",
    "weather": "Warm",
    "latitude": 35.209,
    "longitude": -80.831,
    "loyalty": 10,
    "media_pressure": 10,
    "cost_of_living": 9,
    "stadium_quality": 5
  },
  {
    "city": "Columbus",
    "state": "Ohio",
    "population": 917679,
    "region": "West",
    "weather": "Warm",
    "latitude": 39.9839,
    "longitude": -82.9849,
    "loyalty": 7,
    "media_pressure": 1,
    "cost_of_living": 6,
    "stadium_quality": 10
  },
  {
    "city": "Indianapolis",
    "state": "Indiana",
    "population": 874037,
    "region": "West",
    "weather": "Warm",
    "latitude": 39.7767,
    "longitude": -86.1459,
    "loyalty": 5,
    "media_pressure": 2,
    "cost_of_living": 8,
    "stadium_quality": 10
  },
  {
    "city": "San Francisco",
    "state": "California",
    "population": 767968,
    "region": "West",
    "weather": "Warm",
    "latitude": 37.7272,
    "longitude": -123.032,
    "loyalty": 7,
    "media_pressure": 2,
    "cost_of_living": 3,
    "stadium_quality": 8
  },
  {
    "city": "Seattle",
    "state": "Washington",
    "population": 764753,
    "region": "West",
    "weather": "Warm",
    "latitude": 47.6193,
    "longitude": -122.352,
    "loyalty": 7,
    "media_pressure": 2,
    "cost_of_living": 9,
    "stadium_quality": 6
  },
  {
    "city": "Oklahoma City",
    "state": "Oklahoma",
    "population": 715893,
    "region": "West",
    "weather": "Warm",
    "latitude": 35.4671,
    "longitude": -97.5137,
    "loyalty": 8,
    "media_pressure": 1,
    "cost_of_living": 6,
    "stadium_quality": 9
  },
  {
    "city": "Denver",
    "state": "Colorado",
    "population": 715891,
    "region": "West",
    "weather": "Warm",
    "latitude": 39.7618,
    "longitude": -104.881,
    "loyalty": 5,
    "media_pressure": 2,
    "cost_of_living": 8,
    "stadium_quality": 7
  },
  {
    "city": "Nashville",
    "state": "Tennessee",
    "population": 686513,
    "region": "West",
    "weather": "Warm",
    "latitude": 36.1718,
    "longitude": -86.785,
    "loyalty": 10,
    "media_pressure": 5,
    "cost_of_living": 7,
    "stadium_quality": 7
  },
  {
    "city": "Washington",
    "state": "District of Columbia",
    "population": 684394,
    "region": "West",
    "weather": "Warm",
    "latitude": 38.9042,
    "longitude": -77.0165,
    "loyalty": 8,
    "media_pressure": 9,
    "cost_of_living": 4,
    "stadium_quality": 5
  },
  {
    "city": "El Paso",
    "state": "Texas",
    "population": 678760,
    "region": "West",
    "weather": "Warm",
    "latitude": 31.8478,
    "longitude": -106.431,
    "loyalty": 6,
    "media_pressure": 4,
    "cost_of_living": 6,
    "stadium_quality": 5
  },
  {
    "city": "Las Vegas",
    "state": "Nevada",
    "population": 670352,
    "region": "West",
    "weather": "Warm",
    "latitude": 36.2335,
    "longitude": -115.264,
    "loyalty": 6,
    "media_pressure": 8,
    "cost_of_living": 8,
    "stadium_quality": 9
  },
  {
    "city": "Boston",
    "state": "Massachusetts",
    "population": 639411,
    "region": "West",
    "weather": "Warm",
    "latitude": 42.3386,
    "longitude": -71.0182,
    "loyalty": 5,
    "media_pressure": 8,
    "cost_of_living": 7,
    "stadium_quality": 9
  },
  {
    "city": "Detroit",
    "state": "Michigan",
    "population": 629830,
    "region": "West",
    "weather": "Warm",
    "latitude": 42.383,
    "longitude": -83.1022,
    "loyalty": 7,
    "media_pressure": 5,
    "cost_of_living": 5,
    "stadium_quality": 6
  },
  {
    "city": "Louisville",
    "state": "Kentucky",
    "population": 617027,
    "region": "West",
    "weather": "Warm",
    "latitude": 38.1654,
    "longitude": -85.6474,
    "loyalty": 6,
    "media_pressure": 9,
    "cost_of_living": 3,
    "stadium_quality": 7
  },
  {
    "city": "Portland",
    "state": "Oregon",
    "population": 615267,
    "region": "West",
    "weather": "Warm",
    "latitude": 45.5369,
    "longitude": -122.65,
    "loyalty": 10,
    "media_pressure": 2,
    "cost_of_living": 4,
    "stadium_quality": 7
  },
  {
    "city": "Memphis",
    "state": "Tennessee",
    "population": 607581,
    "region": "West",
    "weather": "Warm",
    "latitude": 35.109,
    "longitude": -89.9675,
    "loyalty": 8,
    "media_pressure": 5,
    "cost_of_living": 3,
    "stadium_quality": 8
  },
  {
    "city": "Albuquerque",
    "state": "New Mexico",
    "population": 557198,
    "region": "West",
    "weather": "Warm",
    "latitude": 35.1048,
    "longitude": -106.647,
    "loyalty": 9,
    "media_pressure": 8,
    "cost_of_living": 10,
    "stadium_quality": 5
  },
  {
    "city": "Baltimore",
    "state": "Maryland",
    "population": 553293,
    "region": "West",
    "weather": "Warm",
    "latitude": 39.3,
    "longitude": -76.6105,
    "loyalty": 4,
    "media_pressure": 8,
    "cost_of_living": 10,
    "stadium_quality": 9
  },
  {
    "city": "Milwaukee",
    "state": "Wisconsin",
    "population": 550837,
    "region": "West",
    "weather": "Warm",
    "latitude": 43.0633,
    "longitude": -87.9667,
    "loyalty": 8,
    "media_pressure": 7,
    "cost_of_living": 8,
    "stadium_quality": 5
  },
  {
    "city": "Tucson",
    "state": "Arizona",
    "population": 550306,
    "region": "West",
    "weather": "Warm",
    "latitude": 32.153,
    "longitude": -110.871,
    "loyalty": 8,
    "media_pressure": 1,
    "cost_of_living": 10,
    "stadium_quality": 7
  },
  {
    "city": "Fresno",
    "state": "California",
    "population": 547720,
    "region": "West",
    "weather": "Warm",
    "latitude": 36.7827,
    "longitude": -119.793,
    "loyalty": 9,
    "media_pressure": 8,
    "cost_of_living": 8,
    "stadium_quality": 5
  },
  {
    "city": "Sacramento",
    "state": "California",
    "population": 526954,
    "region": "West",
    "weather": "Warm",
    "latitude": 38.5677,
    "longitude": -121.468,
    "loyalty": 4,
    "media_pressure": 6,
    "cost_of_living": 9,
    "stadium_quality": 6
  },
  {
    "city": "Atlanta",
    "state": "Georgia",
    "population": 518107,
    "region": "West",
    "weather": "Warm",
    "latitude": 33.7629,
    "longitude": -84.4227,
    "loyalty": 8,
    "media_pressure": 8,
    "cost_of_living": 10,
    "stadium_quality": 6
  },
  {
    "city": "Mesa",
    "state": "Arizona",
    "population": 515486,
    "region": "West",
    "weather": "Warm",
    "latitude": 33.4006,
    "longitude": -111.716,
    "loyalty": 8,
    "media_pressure": 8,
    "cost_of_living": 9,
    "stadium_quality": 6
  },
  {
    "city": "Kansas City",
    "state": "Missouri",
    "population": 512360,
    "region": "West",
    "weather": "Warm",
    "latitude": 39.1224,
    "longitude": -94.5551,
    "loyalty": 7,
    "media_pressure": 1,
    "cost_of_living": 5,
    "stadium_quality": 10
  },
  {
    "city": "Colorado Springs",
    "state": "Colorado",
    "population": 494219,
    "region": "West",
    "weather": "Warm",
    "latitude": 38.8673,
    "longitude": -104.761,
    "loyalty": 4,
    "media_pressure": 7,
    "cost_of_living": 8,
    "stadium_quality": 8
  },
  {
    "city": "Raleigh",
    "state": "North Carolina",
    "population": 493589,
    "region": "West",
    "weather": "Warm",
    "latitude": 35.8319,
    "longitude": -78.641,
    "loyalty": 10,
    "media_pressure": 10,
    "cost_of_living": 8,
    "stadium_quality": 9
  },
  {
    "city": "Omaha",
    "state": "Nebraska",
    "population": 477053,
    "region": "West",
    "weather": "Warm",
    "latitude": 41.2627,
    "longitude": -96.0535,
    "loyalty": 7,
    "media_pressure": 5,
    "cost_of_living": 6,
    "stadium_quality": 5
  },
  {
    "city": "Miami",
    "state": "Florida",
    "population": 464655,
    "region": "West",
    "weather": "Warm",
    "latitude": 25.7752,
    "longitude": -80.2086,
    "loyalty": 9,
    "media_pressure": 10,
    "cost_of_living": 6,
    "stadium_quality": 5
  },
  {
    "city": "Virginia Beach",
    "state": "Virginia",
    "population": 449625,
    "region": "West",
    "weather": "Warm",
    "latitude": 36.7795,
    "longitude": -76.0291,
    "loyalty": 10,
    "media_pressure": 6,
    "cost_of_living": 9,
    "stadium_quality": 10
  },
  {
    "city": "Long Beach",
    "state": "California",
    "population": 438723,
    "region": "West",
    "weather": "Warm",
    "latitude": 33.7808,
    "longitude": -118.168,
    "loyalty": 5,
    "media_pressure": 1,
    "cost_of_living": 7,
    "stadium_quality": 7
  },
  {
    "city": "Oakland",
    "state": "California",
    "population": 433544,
    "region": "West",
    "weather": "Warm",
    "latitude": 37.7698,
    "longitude": -122.226,
    "loyalty": 8,
    "media_pressure": 5,
    "cost_of_living": 5,
    "stadium_quality": 5
  },
  {
    "city": "Minneapolis",
    "state": "Minnesota",
    "population": 421385,
    "region": "West",
    "weather": "Warm",
    "latitude": 44.9633,
    "longitude": -93.2683,
    "loyalty": 4,
    "media_pressure": 7,
    "cost_of_living": 4,
    "stadium_quality": 8
  },
  {
    "city": "Bakersfield",
    "state": "California",
    "population": 418781,
    "region": "West",
    "weather": "Warm",
    "latitude": 35.3532,
    "longitude": -119.038,
    "loyalty": 10,
    "media_pressure": 4,
    "cost_of_living": 7,
    "stadium_quality": 7
  },
  {
    "city": "Tampa",
    "state": "Florida",
    "population": 413657,
    "region": "West",
    "weather": "Warm",
    "latitude": 27.9663,
    "longitude": -82.4776,
    "loyalty": 5,
    "media_pressure": 9,
    "cost_of_living": 7,
    "stadium_quality": 9
  },
  {
    "city": "Tulsa",
    "state": "Oklahoma",
    "population": 410722,
    "region": "West",
    "weather": "Warm",
    "latitude": 36.1279,
    "longitude": -95.9023,
    "loyalty": 9,
    "media_pressure": 5,
    "cost_of_living": 4,
    "stadium_quality": 9
  },
  {
    "city": "Arlington",
    "state": "Texas",
    "population": 401219,
    "region": "West",
    "weather": "Warm",
    "latitude": 32.7007,
    "longitude": -97.1247,
    "loyalty": 5,
    "media_pressure": 10,
    "cost_of_living": 9,
    "stadium_quality": 5
  },
  {
    "city": "Aurora",
    "state": "Colorado",
    "population": 400571,
    "region": "West",
    "weather": "Warm",
    "latitude": 39.7036,
    "longitude": -104.72,
    "loyalty": 7,
    "media_pressure": 9,
    "cost_of_living": 10,
    "stadium_quality": 7
  },
  {
    "city": "Wichita",
    "state": "Kansas",
    "population": 394849,
    "region": "West",
    "weather": "Warm",
    "latitude": 37.6906,
    "longitude": -97.3458,
    "loyalty": 8,
    "media_pressure": 5,
    "cost_of_living": 10,
    "stadium_quality": 9
  },
  {
    "city": "Cleveland",
    "state": "Ohio",
    "population": 356556,
    "region": "West",
    "weather": "Warm",
    "latitude": 41.4785,
    "longitude": -81.6794,
    "loyalty": 4,
    "media_pressure": 3,
    "cost_of_living": 8,
    "stadium_quality": 5
  },
  {
    "city": "New Orleans",
    "state": "Louisiana",
    "population": 351399,
    "region": "West",
    "weather": "Warm",
    "latitude": 30.0534,
    "longitude": -89.9345,
    "loyalty": 4,
    "media_pressure": 5,
    "cost_of_living": 5,
    "stadium_quality": 9
  },
  {
    "city": "Henderson",
    "state": "Nevada",
    "population": 349460,
    "region": "West",
    "weather": "Warm",
    "latitude": 36.009,
    "longitude": -115.027,
    "loyalty": 5,
    "media_pressure": 8,
    "cost_of_living": 10,
    "stadium_quality": 5
  },
  {
    "city": "Honolulu",
    "state": "Hawaii",
    "population": 337338,
    "region": "West",
    "weather": "Warm",
    "latitude": 21.3243,
    "longitude": -157.848,
    "loyalty": 9,
    "media_pressure": 10,
    "cost_of_living": 6,
    "stadium_quality": 8
  },
  {
    "city": "Anaheim",
    "state": "California",
    "population": 336414,
    "region": "West",
    "weather": "Warm",
    "latitude": 33.8555,
    "longitude": -117.759,
    "loyalty": 7,
    "media_pressure": 8,
    "cost_of_living": 3,
    "stadium_quality": 7
  },
  {
    "city": "Orlando",
    "state": "Florida",
    "population": 329347,
    "region": "West",
    "weather": "Warm",
    "latitude": 28.4086,
    "longitude": -81.2548,
    "loyalty": 7,
    "media_pressure": 2,
    "cost_of_living": 8,
    "stadium_quality": 9
  },
  {
    "city": "Riverside",
    "state": "California",
    "population": 321385,
    "region": "West",
    "weather": "Warm",
    "latitude": 33.9381,
    "longitude": -117.393,
    "loyalty": 10,
    "media_pressure": 4,
    "cost_of_living": 4,
    "stadium_quality": 8
  },
  {
    "city": "Irvine",
    "state": "California",
    "population": 318761,
    "region": "West",
    "weather": "Warm",
    "latitude": 33.6784,
    "longitude": -117.771,
    "loyalty": 7,
    "media_pressure": 9,
    "cost_of_living": 8,
    "stadium_quality": 8
  },
  {
    "city": "Stockton",
    "state": "California",
    "population": 318587,
    "region": "West",
    "weather": "Warm",
    "latitude": 37.9772,
    "longitude": -121.309,
    "loyalty": 7,
    "media_pressure": 10,
    "cost_of_living": 4,
    "stadium_quality": 7
  },
  {
    "city": "Lexington",
    "state": "Kentucky",
    "population": 318505,
    "region": "West",
    "weather": "Warm",
    "latitude": 38.0407,
    "longitude": -84.4583,
    "loyalty": 6,
    "media_pressure": 5,
    "cost_of_living": 10,
    "stadium_quality": 9
  },
  {
    "city": "Corpus Christi",
    "state": "Texas",
    "population": 315615,
    "region": "West",
    "weather": "Warm",
    "latitude": 27.7543,
    "longitude": -97.1734,
    "loyalty": 5,
    "media_pressure": 5,
    "cost_of_living": 8,
    "stadium_quality": 5
  },
  {
    "city": "Cincinnati",
    "state": "Ohio",
    "population": 312094,
    "region": "West",
    "weather": "Warm",
    "latitude": 39.1402,
    "longitude": -84.5058,
    "loyalty": 9,
    "media_pressure": 2,
    "cost_of_living": 9,
    "stadium_quality": 9
  },
  {
    "city": "Santa Ana",
    "state": "California",
    "population": 310069,
    "region": "West",
    "weather": "Warm",
    "latitude": 33.7363,
    "longitude": -117.883,
    "loyalty": 10,
    "media_pressure": 6,
    "cost_of_living": 10,
    "stadium_quality": 9
  },
  {
    "city": "Greensboro",
    "state": "North Carolina",
    "population": 306263,
    "region": "West",
    "weather": "Warm",
    "latitude": 36.0948,
    "longitude": -79.8236,
    "loyalty": 9,
    "media_pressure": 2,
    "cost_of_living": 7,
    "stadium_quality": 10
  },
  {
    "city": "Durham",
    "state": "North Carolina",
    "population": 304014,
    "region": "West",
    "weather": "Warm",
    "latitude": 35.9781,
    "longitude": -78.8995,
    "loyalty": 7,
    "media_pressure": 10,
    "cost_of_living": 8,
    "stadium_quality": 6
  },
  {
    "city": "Pittsburgh",
    "state": "Pennsylvania",
    "population": 303572,
    "region": "West",
    "weather": "Warm",
    "latitude": 40.4399,
    "longitude": -79.9757,
    "loyalty": 4,
    "media_pressure": 9,
    "cost_of_living": 8,
    "stadium_quality": 6
  },
  {
    "city": "Newark",
    "state": "New Jersey",
    "population": 301170,
    "region": "West",
    "weather": "Warm",
    "latitude": 40.7242,
    "longitude": -74.1726,
    "loyalty": 10,
    "media_pressure": 5,
    "cost_of_living": 7,
    "stadium_quality": 6
  },
  {
    "city": "North Las Vegas",
    "state": "Nevada",
    "population": 300475,
    "region": "West",
    "weather": "Warm",
    "latitude": 36.2899,
    "longitude": -115.089,
    "loyalty": 6,
    "media_pressure": 8,
    "cost_of_living": 10,
    "stadium_quality": 5
  },
  {
    "city": "St. Paul",
    "state": "Minnesota",
    "population": 298940,
    "region": "West",
    "weather": "Warm",
    "latitude": 44.9489,
    "longitude": -93.1041,
    "loyalty": 5,
    "media_pressure": 5,
    "cost_of_living": 8,
    "stadium_quality": 6
  },
  {
    "city": "Lincoln",
    "state": "Nebraska",
    "population": 296839,
    "region": "West",
    "weather": "Warm",
    "latitude": 40.8089,
    "longitude": -96.6779,
    "loyalty": 8,
    "media_pressure": 3,
    "cost_of_living": 9,
    "stadium_quality": 10
  },
  {
    "city": "Plano",
    "state": "Texas",
    "population": 292711,
    "region": "West",
    "weather": "Warm",
    "latitude": 33.0508,
    "longitude": -96.7479,
    "loyalty": 4,
    "media_pressure": 10,
    "cost_of_living": 5,
    "stadium_quality": 7
  },
  {
    "city": "Jersey City",
    "state": "New Jersey",
    "population": 291462,
    "region": "West",
    "weather": "Warm",
    "latitude": 40.7114,
    "longitude": -74.0648,
    "loyalty": 5,
    "media_pressure": 9,
    "cost_of_living": 6,
    "stadium_quality": 5
  },
  {
    "city": "Madison",
    "state": "Wisconsin",
    "population": 283705,
    "region": "West",
    "weather": "Warm",
    "latitude": 43.0878,
    "longitude": -89.4299,
    "loyalty": 9,
    "media_pressure": 1,
    "cost_of_living": 7,
    "stadium_quality": 8
  },
  {
    "city": "Anchorage",
    "state": "Alaska",
    "population": 282863,
    "region": "West",
    "weather": "Warm",
    "latitude": 61.1743,
    "longitude": -149.284,
    "loyalty": 9,
    "media_pressure": 4,
    "cost_of_living": 10,
    "stadium_quality": 5
  },
  {
    "city": "Chandler",
    "state": "Arizona",
    "population": 282048,
    "region": "West",
    "weather": "Warm",
    "latitude": 33.2828,
    "longitude": -111.852,
    "loyalty": 4,
    "media_pressure": 9,
    "cost_of_living": 9,
    "stadium_quality": 9
  },
  {
    "city": "Reno",
    "state": "Nevada",
    "population": 281537,
    "region": "West",
    "weather": "Warm",
    "latitude": 39.5491,
    "longitude": -119.85,
    "loyalty": 8,
    "media_pressure": 7,
    "cost_of_living": 5,
    "stadium_quality": 10
  },
  {
    "city": "Gilbert",
    "state": "Arizona",
    "population": 279569,
    "region": "West",
    "weather": "Warm",
    "latitude": 33.3103,
    "longitude": -111.743,
    "loyalty": 7,
    "media_pressure": 7,
    "cost_of_living": 5,
    "stadium_quality": 5
  },
  {
    "city": "Fort Wayne",
    "state": "Indiana",
    "population": 273736,
    "region": "West",
    "weather": "Warm",
    "latitude": 41.0891,
    "longitude": -85.1439,
    "loyalty": 10,
    "media_pressure": 7,
    "cost_of_living": 9,
    "stadium_quality": 10
  },
  {
    "city": "Chula Vista",
    "state": "California",
    "population": 273349,
    "region": "West",
    "weather": "Warm",
    "latitude": 32.6277,
    "longitude": -117.015,
    "loyalty": 4,
    "media_pressure": 10,
    "cost_of_living": 7,
    "stadium_quality": 6
  },
  {
    "city": "Lubbock",
    "state": "Texas",
    "population": 272788,
    "region": "West",
    "weather": "Warm",
    "latitude": 33.5619,
    "longitude": -101.889,
    "loyalty": 9,
    "media_pressure": 5,
    "cost_of_living": 7,
    "stadium_quality": 8
  },
  {
    "city": "Buffalo",
    "state": "New York",
    "population": 272762,
    "region": "West",
    "weather": "Warm",
    "latitude": 42.8925,
    "longitude": -78.8597,
    "loyalty": 10,
    "media_pressure": 1,
    "cost_of_living": 8,
    "stadium_quality": 7
  },
  {
    "city": "Port St. Lucie",
    "state": "Florida",
    "population": 270491,
    "region": "West",
    "weather": "Warm",
    "latitude": 27.2806,
    "longitude": -80.3883,
    "loyalty": 7,
    "media_pressure": 7,
    "cost_of_living": 3,
    "stadium_quality": 10
  },
  {
    "city": "St. Louis",
    "state": "Missouri",
    "population": 269259,
    "region": "West",
    "weather": "Warm",
    "latitude": 38.6357,
    "longitude": -90.2446,
    "loyalty": 4,
    "media_pressure": 9,
    "cost_of_living": 3,
    "stadium_quality": 9
  },
  {
    "city": "St. Petersburg",
    "state": "Florida",
    "population": 266411,
    "region": "West",
    "weather": "Warm",
    "latitude": 27.7627,
    "longitude": -82.6441,
    "loyalty": 4,
    "media_pressure": 9,
    "cost_of_living": 10,
    "stadium_quality": 8
  },
  {
    "city": "Toledo",
    "state": "Ohio",
    "population": 261989,
    "region": "West",
    "weather": "Warm",
    "latitude": 41.6641,
    "longitude": -83.5819,
    "loyalty": 5,
    "media_pressure": 4,
    "cost_of_living": 5,
    "stadium_quality": 7
  },
  {
    "city": "Laredo",
    "state": "Texas",
    "population": 259010,
    "region": "West",
    "weather": "Warm",
    "latitude": 27.5604,
    "longitude": -99.4892,
    "loyalty": 8,
    "media_pressure": 6,
    "cost_of_living": 9,
    "stadium_quality": 6
  },
  {
    "city": "Glendale",
    "state": "Arizona",
    "population": 257125,
    "region": "West",
    "weather": "Warm",
    "latitude": 33.5331,
    "longitude": -112.19,
    "loyalty": 4,
    "media_pressure": 5,
    "cost_of_living": 6,
    "stadium_quality": 9
  },
  {
    "city": "Chesapeake",
    "state": "Virginia",
    "population": 256622,
    "region": "West",
    "weather": "Warm",
    "latitude": 36.6794,
    "longitude": -76.3018,
    "loyalty": 7,
    "media_pressure": 7,
    "cost_of_living": 7,
    "stadium_quality": 9
  },
  {
    "city": "Winston-Salem",
    "state": "North Carolina",
    "population": 255089,
    "region": "West",
    "weather": "Warm",
    "latitude": 36.1029,
    "longitude": -80.2608,
    "loyalty": 9,
    "media_pressure": 2,
    "cost_of_living": 8,
    "stadium_quality": 5
  },
  {
    "city": "Enterprise",
    "state": "Nevada",
    "population": 254706,
    "region": "West",
    "weather": "Warm",
    "latitude": 36.0091,
    "longitude": -115.228,
    "loyalty": 8,
    "media_pressure": 5,
    "cost_of_living": 6,
    "stadium_quality": 8
  },
  {
    "city": "Irving",
    "state": "Texas",
    "population": 252750,
    "region": "West",
    "weather": "Warm",
    "latitude": 32.8577,
    "longitude": -96.97,
    "loyalty": 5,
    "media_pressure": 1,
    "cost_of_living": 4,
    "stadium_quality": 6
  },
  {
    "city": "Scottsdale",
    "state": "Arizona",
    "population": 246068,
    "region": "West",
    "weather": "Warm",
    "latitude": 33.6843,
    "longitude": -111.861,
    "loyalty": 7,
    "media_pressure": 7,
    "cost_of_living": 9,
    "stadium_quality": 5
  },
  {
    "city": "Cape Coral",
    "state": "Florida",
    "population": 243810,
    "region": "West",
    "weather": "Warm",
    "latitude": 26.6432,
    "longitude": -81.9974,
    "loyalty": 10,
    "media_pressure": 2,
    "cost_of_living": 6,
    "stadium_quality": 6
  },
  {
    "city": "Arlington",
    "state": "Virginia",
    "population": 242900,
    "region": "West",
    "weather": "Warm",
    "latitude": 38.8783,
    "longitude": -77.1007,
    "loyalty": 4,
    "media_pressure": 8,
    "cost_of_living": 4,
    "stadium_quality": 9
  },
  {
    "city": "Garland",
    "state": "Texas",
    "population": 241576,
    "region": "West",
    "weather": "Warm",
    "latitude": 32.9098,
    "longitude": -96.6303,
    "loyalty": 6,
    "media_pressure": 8,
    "cost_of_living": 4,
    "stadium_quality": 6
  },
  {
    "city": "Frisco",
    "state": "Texas",
    "population": 239842,
    "region": "West",
    "weather": "Warm",
    "latitude": 33.1554,
    "longitude": -96.8226,
    "loyalty": 9,
    "media_pressure": 2,
    "cost_of_living": 10,
    "stadium_quality": 7
  },
  {
    "city": "Boise City",
    "state": "Idaho",
    "population": 235012,
    "region": "West",
    "weather": "Warm",
    "latitude": 43.6002,
    "longitude": -116.232,
    "loyalty": 6,
    "media_pressure": 2,
    "cost_of_living": 9,
    "stadium_quality": 8
  },
  {
    "city": "Huntsville",
    "state": "Alabama",
    "population": 231668,
    "region": "West",
    "weather": "Warm",
    "latitude": 34.6977,
    "longitude": -86.6767,
    "loyalty": 10,
    "media_pressure": 10,
    "cost_of_living": 5,
    "stadium_quality": 6
  },
  {
    "city": "Richmond",
    "state": "Virginia",
    "population": 230787,
    "region": "West",
    "weather": "Warm",
    "latitude": 37.5314,
    "longitude": -77.476,
    "loyalty": 7,
    "media_pressure": 7,
    "cost_of_living": 10,
    "stadium_quality": 10
  },
  {
    "city": "Spring Valley",
    "state": "Nevada",
    "population": 230544,
    "region": "West",
    "weather": "Warm",
    "latitude": 36.0952,
    "longitude": -115.264,
    "loyalty": 10,
    "media_pressure": 5,
    "cost_of_living": 9,
    "stadium_quality": 8
  },
  {
    "city": "Spokane",
    "state": "Washington",
    "population": 229608,
    "region": "West",
    "weather": "Warm",
    "latitude": 47.6669,
    "longitude": -117.433,
    "loyalty": 9,
    "media_pressure": 9,
    "cost_of_living": 8,
    "stadium_quality": 6
  },
  {
    "city": "Norfolk",
    "state": "Virginia",
    "population": 226357,
    "region": "West",
    "weather": "Warm",
    "latitude": 36.923,
    "longitude": -76.2446,
    "loyalty": 7,
    "media_pressure": 9,
    "cost_of_living": 4,
    "stadium_quality": 9
  },
  {
    "city": "Tacoma",
    "state": "Washington",
    "population": 225030,
    "region": "West",
    "weather": "Warm",
    "latitude": 47.2522,
    "longitude": -122.46,
    "loyalty": 8,
    "media_pressure": 6,
    "cost_of_living": 7,
    "stadium_quality": 9
  },
  {
    "city": "San Bernardino",
    "state": "California",
    "population": 224820,
    "region": "West",
    "weather": "Warm",
    "latitude": 34.1411,
    "longitude": -117.295,
    "loyalty": 4,
    "media_pressure": 1,
    "cost_of_living": 9,
    "stadium_quality": 9
  },
  {
    "city": "McKinney",
    "state": "Texas",
    "population": 224183,
    "region": "West",
    "weather": "Warm",
    "latitude": 33.2011,
    "longitude": -96.6642,
    "loyalty": 7,
    "media_pressure": 2,
    "cost_of_living": 7,
    "stadium_quality": 8
  },
  {
    "city": "Fremont",
    "state": "California",
    "population": 223393,
    "region": "West",
    "weather": "Warm",
    "latitude": 37.4945,
    "longitude": -121.941,
    "loyalty": 4,
    "media_pressure": 1,
    "cost_of_living": 4,
    "stadium_quality": 7
  },
  {
    "city": "Hialeah",
    "state": "Florida",
    "population": 220561,
    "region": "West",
    "weather": "Warm",
    "latitude": 25.8699,
    "longitude": -80.3029,
    "loyalty": 10,
    "media_pressure": 3,
    "cost_of_living": 10,
    "stadium_quality": 10
  },
  {
    "city": "Fontana",
    "state": "California",
    "population": 219657,
    "region": "West",
    "weather": "Warm",
    "latitude": 34.1097,
    "longitude": -117.463,
    "loyalty": 7,
    "media_pressure": 10,
    "cost_of_living": 7,
    "stadium_quality": 8
  },
  {
    "city": "Modesto",
    "state": "California",
    "population": 219064,
    "region": "West",
    "weather": "Warm",
    "latitude": 37.6375,
    "longitude": -121.003,
    "loyalty": 5,
    "media_pressure": 4,
    "cost_of_living": 10,
    "stadium_quality": 9
  },
  {
    "city": "Santa Clarita",
    "state": "California",
    "population": 218442,
    "region": "West",
    "weather": "Warm",
    "latitude": 34.4165,
    "longitude": -118.501,
    "loyalty": 5,
    "media_pressure": 10,
    "cost_of_living": 3,
    "stadium_quality": 6
  },
  {
    "city": "Salt Lake City",
    "state": "Utah",
    "population": 215548,
    "region": "West",
    "weather": "Warm",
    "latitude": 40.7769,
    "longitude": -111.931,
    "loyalty": 4,
    "media_pressure": 10,
    "cost_of_living": 7,
    "stadium_quality": 7
  },
  {
    "city": "Baton Rouge",
    "state": "Louisiana",
    "population": 215112,
    "region": "West",
    "weather": "Warm",
    "latitude": 30.4404,
    "longitude": -91.1332,
    "loyalty": 8,
    "media_pressure": 2,
    "cost_of_living": 10,
    "stadium_quality": 10
  },
  {
    "city": "Sioux Falls",
    "state": "South Dakota",
    "population": 215058,
    "region": "West",
    "weather": "Warm",
    "latitude": 43.5407,
    "longitude": -96.732,
    "loyalty": 5,
    "media_pressure": 8,
    "cost_of_living": 4,
    "stadium_quality": 5
  },
  {
    "city": "Moreno Valley",
    "state": "California",
    "population": 214741,
    "region": "West",
    "weather": "Warm",
    "latitude": 33.9233,
    "longitude": -117.206,
    "loyalty": 6,
    "media_pressure": 4,
    "cost_of_living": 8,
    "stadium_quality": 5
  },
  {
    "city": "Fayetteville",
    "state": "North Carolina",
    "population": 210135,
    "region": "West",
    "weather": "Warm",
    "latitude": 35.0828,
    "longitude": -78.9735,
    "loyalty": 6,
    "media_pressure": 6,
    "cost_of_living": 7,
    "stadium_quality": 8
  },
  {
    "city": "Worcester",
    "state": "Massachusetts",
    "population": 209331,
    "region": "West",
    "weather": "Warm",
    "latitude": 42.2695,
    "longitude": -71.8078,
    "loyalty": 9,
    "media_pressure": 7,
    "cost_of_living": 5,
    "stadium_quality": 8
  },
  {
    "city": "Des Moines",
    "state": "Iowa",
    "population": 208084,
    "region": "West",
    "weather": "Warm",
    "latitude": 41.5726,
    "longitude": -93.6102,
    "loyalty": 6,
    "media_pressure": 10,
    "cost_of_living": 10,
    "stadium_quality": 10
  },
  {
    "city": "Grand Prairie",
    "state": "Texas",
    "population": 206053,
    "region": "West",
    "weather": "Warm",
    "latitude": 32.6861,
    "longitude": -97.0208,
    "loyalty": 10,
    "media_pressure": 10,
    "cost_of_living": 4,
    "stadium_quality": 5
  },
  {
    "city": "Yonkers",
    "state": "New York",
    "population": 205432,
    "region": "West",
    "weather": "Warm",
    "latitude": 40.9459,
    "longitude": -73.8674,
    "loyalty": 4,
    "media_pressure": 1,
    "cost_of_living": 8,
    "stadium_quality": 7
  },
  {
    "city": "Tallahassee",
    "state": "Florida",
    "population": 205079,
    "region": "West",
    "weather": "Warm",
    "latitude": 30.4535,
    "longitude": -84.2523,
    "loyalty": 10,
    "media_pressure": 6,
    "cost_of_living": 3,
    "stadium_quality": 9
  },
  {
    "city": "Rochester",
    "state": "New York",
    "population": 204882,
    "region": "West",
    "weather": "Warm",
    "latitude": 43.1699,
    "longitude": -77.6169,
    "loyalty": 8,
    "media_pressure": 7,
    "cost_of_living": 8,
    "stadium_quality": 7
  },
  {
    "city": "Little Rock",
    "state": "Arkansas",
    "population": 204647,
    "region": "West",
    "weather": "Warm",
    "latitude": 34.7254,
    "longitude": -92.3586,
    "loyalty": 4,
    "media_pressure": 3,
    "cost_of_living": 5,
    "stadium_quality": 8
  },
  {
    "city": "Amarillo",
    "state": "Texas",
    "population": 203662,
    "region": "West",
    "weather": "Warm",
    "latitude": 35.1981,
    "longitude": -101.833,
    "loyalty": 8,
    "media_pressure": 8,
    "cost_of_living": 8,
    "stadium_quality": 5
  },
  {
    "city": "Peoria",
    "state": "Arizona",
    "population": 203252,
    "region": "West",
    "weather": "Warm",
    "latitude": 33.7862,
    "longitude": -112.308,
    "loyalty": 5,
    "media_pressure": 2,
    "cost_of_living": 9,
    "stadium_quality": 7
  },
  {
    "city": "Knoxville",
    "state": "Tennessee",
    "population": 202639,
    "region": "West",
    "weather": "Warm",
    "latitude": 35.9707,
    "longitude": -83.9493,
    "loyalty": 5,
    "media_pressure": 2,
    "cost_of_living": 3,
    "stadium_quality": 5
  },
  {
    "city": "Sunrise Manor",
    "state": "Nevada",
    "population": 200563,
    "region": "West",
    "weather": "Warm",
    "latitude": 36.1783,
    "longitude": -115.049,
    "loyalty": 4,
    "media_pressure": 5,
    "cost_of_living": 7,
    "stadium_quality": 10
  },
  {
    "city": "Augusta",
    "state": "Georgia",
    "population": 200140,
    "region": "West",
    "weather": "Warm",
    "latitude": 33.3655,
    "longitude": -82.0734,
    "loyalty": 8,
    "media_pressure": 9,
    "cost_of_living": 10,
    "stadium_quality": 5
  },
  {
    "city": "Vancouver",
    "state": "Washington",
    "population": 199884,
    "region": "West",
    "weather": "Warm",
    "latitude": 45.6372,
    "longitude": -122.597,
    "loyalty": 6,
    "media_pressure": 1,
    "cost_of_living": 3,
    "stadium_quality": 5
  },
  {
    "city": "Columbus",
    "state": "Georgia",
    "population": 198457,
    "region": "West",
    "weather": "Warm",
    "latitude": 32.5102,
    "longitude": -84.8749,
    "loyalty": 5,
    "media_pressure": 9,
    "cost_of_living": 8,
    "stadium_quality": 5
  },
  {
    "city": "Overland Park",
    "state": "Kansas",
    "population": 196659,
    "region": "West",
    "weather": "Warm",
    "latitude": 38.889,
    "longitude": -94.6906,
    "loyalty": 4,
    "media_pressure": 4,
    "cost_of_living": 8,
    "stadium_quality": 9
  },
  {
    "city": "Oxnard",
    "state": "California",
    "population": 196206,
    "region": "West",
    "weather": "Warm",
    "latitude": 34.1994,
    "longitude": -119.208,
    "loyalty": 9,
    "media_pressure": 6,
    "cost_of_living": 3,
    "stadium_quality": 6
  },
  {
    "city": "Grand Rapids",
    "state": "Michigan",
    "population": 195208,
    "region": "West",
    "weather": "Warm",
    "latitude": 42.9612,
    "longitude": -85.6556,
    "loyalty": 10,
    "media_pressure": 4,
    "cost_of_living": 5,
    "stadium_quality": 5
  },
  {
    "city": "Birmingham",
    "state": "Alabama",
    "population": 194156,
    "region": "West",
    "weather": "Warm",
    "latitude": 33.5272,
    "longitude": -86.797,
    "loyalty": 4,
    "media_pressure": 9,
    "cost_of_living": 8,
    "stadium_quality": 7
  },
  {
    "city": "Tempe",
    "state": "Arizona",
    "population": 192838,
    "region": "West",
    "weather": "Warm",
    "latitude": 33.3884,
    "longitude": -111.932,
    "loyalty": 9,
    "media_pressure": 3,
    "cost_of_living": 3,
    "stadium_quality": 7
  },
  {
    "city": "Brownsville",
    "state": "Texas",
    "population": 192260,
    "region": "West",
    "weather": "Warm",
    "latitude": 25.9957,
    "longitude": -97.4509,
    "loyalty": 7,
    "media_pressure": 8,
    "cost_of_living": 9,
    "stadium_quality": 10
  },
  {
    "city": "Montgomery",
    "state": "Alabama",
    "population": 192117,
    "region": "West",
    "weather": "Warm",
    "latitude": 32.3485,
    "longitude": -86.2673,
    "loyalty": 10,
    "media_pressure": 2,
    "cost_of_living": 9,
    "stadium_quality": 9
  },
  {
    "city": "Providence",
    "state": "Rhode Island",
    "population": 190823,
    "region": "West",
    "weather": "Warm",
    "latitude": 41.8231,
    "longitude": -71.4188,
    "loyalty": 8,
    "media_pressure": 8,
    "cost_of_living": 4,
    "stadium_quality": 8
  },
  {
    "city": "Chattanooga",
    "state": "Tennessee",
    "population": 190671,
    "region": "West",
    "weather": "Warm",
    "latitude": 35.066,
    "longitude": -85.2484,
    "loyalty": 10,
    "media_pressure": 5,
    "cost_of_living": 5,
    "stadium_quality": 9
  },
  {
    "city": "Clarksville",
    "state": "Tennessee",
    "population": 189520,
    "region": "West",
    "weather": "Warm",
    "latitude": 36.5664,
    "longitude": -87.3452,
    "loyalty": 6,
    "media_pressure": 7,
    "cost_of_living": 9,
    "stadium_quality": 7
  },
  {
    "city": "Huntington Beach",
    "state": "California",
    "population": 187945,
    "region": "West",
    "weather": "Warm",
    "latitude": 33.698,
    "longitude": -118.004,
    "loyalty": 8,
    "media_pressure": 4,
    "cost_of_living": 4,
    "stadium_quality": 10
  },
  {
    "city": "Akron",
    "state": "Ohio",
    "population": 187737,
    "region": "West",
    "weather": "Warm",
    "latitude": 41.0805,
    "longitude": -81.5214,
    "loyalty": 7,
    "media_pressure": 10,
    "cost_of_living": 8,
    "stadium_quality": 6
  },
  {
    "city": "Ontario",
    "state": "California",
    "population": 186953,
    "region": "West",
    "weather": "Warm",
    "latitude": 34.0376,
    "longitude": -117.604,
    "loyalty": 4,
    "media_pressure": 1,
    "cost_of_living": 7,
    "stadium_quality": 6
  },
  {
    "city": "Fort Lauderdale",
    "state": "Florida",
    "population": 185163,
    "region": "West",
    "weather": "Warm",
    "latitude": 26.1412,
    "longitude": -80.1467,
    "loyalty": 10,
    "media_pressure": 7,
    "cost_of_living": 10,
    "stadium_quality": 6
  },
  {
    "city": "Cary",
    "state": "North Carolina",
    "population": 183498,
    "region": "West",
    "weather": "Warm",
    "latitude": 35.7813,
    "longitude": -78.8234,
    "loyalty": 10,
    "media_pressure": 2,
    "cost_of_living": 7,
    "stadium_quality": 5
  },
  {
    "city": "Paradise",
    "state": "Nevada",
    "population": 181375,
    "region": "West",
    "weather": "Warm",
    "latitude": 36.0871,
    "longitude": -115.136,
    "loyalty": 9,
    "media_pressure": 2,
    "cost_of_living": 7,
    "stadium_quality": 10
  },
  {
    "city": "Newport News",
    "state": "Virginia",
    "population": 181165,
    "region": "West",
    "weather": "Warm",
    "latitude": 37.0761,
    "longitude": -76.522,
    "loyalty": 8,
    "media_pressure": 3,
    "cost_of_living": 9,
    "stadium_quality": 5
  },
  {
    "city": "Glendale",
    "state": "California",
    "population": 181127,
    "region": "West",
    "weather": "Warm",
    "latitude": 34.1814,
    "longitude": -118.246,
    "loyalty": 10,
    "media_pressure": 9,
    "cost_of_living": 9,
    "stadium_quality": 8
  },
  {
    "city": "Mobile",
    "state": "Alabama",
    "population": 179911,
    "region": "West",
    "weather": "Warm",
    "latitude": 30.6684,
    "longitude": -88.1002,
    "loyalty": 8,
    "media_pressure": 7,
    "cost_of_living": 7,
    "stadium_quality": 5
  },
  {
    "city": "Elk Grove",
    "state": "California",
    "population": 179694,
    "region": "West",
    "weather": "Warm",
    "latitude": 38.4146,
    "longitude": -121.385,
    "loyalty": 8,
    "media_pressure": 7,
    "cost_of_living": 4,
    "stadium_quality": 9
  },
  {
    "city": "Salem",
    "state": "Oregon",
    "population": 178425,
    "region": "West",
    "weather": "Warm",
    "latitude": 44.9239,
    "longitude": -123.023,
    "loyalty": 8,
    "media_pressure": 3,
    "cost_of_living": 7,
    "stadium_quality": 8
  },
  {
    "city": "Eugene",
    "state": "Oregon",
    "population": 178213,
    "region": "West",
    "weather": "Warm",
    "latitude": 44.0568,
    "longitude": -123.119,
    "loyalty": 7,
    "media_pressure": 1,
    "cost_of_living": 5,
    "stadium_quality": 8
  },
  {
    "city": "Aurora",
    "state": "Illinois",
    "population": 175795,
    "region": "West",
    "weather": "Warm",
    "latitude": 41.7635,
    "longitude": -88.2901,
    "loyalty": 9,
    "media_pressure": 1,
    "cost_of_living": 8,
    "stadium_quality": 7
  },
  {
    "city": "Santa Rosa",
    "state": "California",
    "population": 174435,
    "region": "West",
    "weather": "Warm",
    "latitude": 38.4458,
    "longitude": -122.706,
    "loyalty": 7,
    "media_pressure": 10,
    "cost_of_living": 3,
    "stadium_quality": 7
  },
  {
    "city": "Rancho Cucamonga",
    "state": "California",
    "population": 174219,
    "region": "West",
    "weather": "Warm",
    "latitude": 34.1303,
    "longitude": -117.566,
    "loyalty": 8,
    "media_pressure": 10,
    "cost_of_living": 7,
    "stadium_quality": 9
  },
  {
    "city": "Murfreesboro",
    "state": "Tennessee",
    "population": 173212,
    "region": "West",
    "weather": "Warm",
    "latitude": 35.8539,
    "longitude": -86.4212,
    "loyalty": 7,
    "media_pressure": 5,
    "cost_of_living": 7,
    "stadium_quality": 7
  },
  {
    "city": "Shreveport",
    "state": "Louisiana",
    "population": 172033,
    "region": "West",
    "weather": "Warm",
    "latitude": 32.4669,
    "longitude": -93.7922,
    "loyalty": 5,
    "media_pressure": 2,
    "cost_of_living": 5,
    "stadium_quality": 6
  },
  {
    "city": "Pembroke Pines",
    "state": "Florida",
    "population": 171149,
    "region": "West",
    "weather": "Warm",
    "latitude": 26.0147,
    "longitude": -80.3402,
    "loyalty": 9,
    "media_pressure": 8,
    "cost_of_living": 4,
    "stadium_quality": 5
  },
  {
    "city": "Springfield",
    "state": "Missouri",
    "population": 170862,
    "region": "West",
    "weather": "Warm",
    "latitude": 37.1942,
    "longitude": -93.2926,
    "loyalty": 9,
    "media_pressure": 10,
    "cost_of_living": 8,
    "stadium_quality": 10
  },
  {
    "city": "Fort Collins",
    "state": "Colorado",
    "population": 170638,
    "region": "West",
    "weather": "Warm",
    "latitude": 40.5482,
    "longitude": -105.065,
    "loyalty": 4,
    "media_pressure": 1,
    "cost_of_living": 10,
    "stadium_quality": 5
  },
  {
    "city": "Denton",
    "state": "Texas",
    "population": 169843,
    "region": "West",
    "weather": "Warm",
    "latitude": 33.2174,
    "longitude": -97.1413,
    "loyalty": 10,
    "media_pressure": 10,
    "cost_of_living": 10,
    "stadium_quality": 5
  },
  {
    "city": "Surprise",
    "state": "Arizona",
    "population": 167537,
    "region": "West",
    "weather": "Warm",
    "latitude": 33.6708,
    "longitude": -112.453,
    "loyalty": 5,
    "media_pressure": 10,
    "cost_of_living": 3,
    "stadium_quality": 9
  },
  {
    "city": "Oceanside",
    "state": "California",
    "population": 167390,
    "region": "West",
    "weather": "Warm",
    "latitude": 33.2246,
    "longitude": -117.306,
    "loyalty": 6,
    "media_pressure": 4,
    "cost_of_living": 4,
    "stadium_quality": 8
  },
  {
    "city": "Roseville",
    "state": "California",
    "population": 166214,
    "region": "West",
    "weather": "Warm",
    "latitude": 38.7703,
    "longitude": -121.32,
    "loyalty": 8,
    "media_pressure": 9,
    "cost_of_living": 6,
    "stadium_quality": 10
  },
  {
    "city": "Garden Grove",
    "state": "California",
    "population": 165814,
    "region": "West",
    "weather": "Warm",
    "latitude": 33.7788,
    "longitude": -117.96,
    "loyalty": 9,
    "media_pressure": 5,
    "cost_of_living": 4,
    "stadium_quality": 5
  },
  {
    "city": "Killeen",
    "state": "Texas",
    "population": 163581,
    "region": "West",
    "weather": "Warm",
    "latitude": 31.0777,
    "longitude": -97.7319,
    "loyalty": 6,
    "media_pressure": 2,
    "cost_of_living": 6,
    "stadium_quality": 5
  },
  {
    "city": "Corona",
    "state": "California",
    "population": 162084,
    "region": "West",
    "weather": "Warm",
    "latitude": 33.862,
    "longitude": -117.565,
    "loyalty": 10,
    "media_pressure": 1,
    "cost_of_living": 4,
    "stadium_quality": 5
  },
  {
    "city": "Lancaster",
    "state": "California",
    "population": 161664,
    "region": "West",
    "weather": "Warm",
    "latitude": 34.6936,
    "longitude": -118.175,
    "loyalty": 10,
    "media_pressure": 5,
    "cost_of_living": 6,
    "stadium_quality": 10
  },
  {
    "city": "Charleston",
    "state": "South Carolina",
    "population": 158367,
    "region": "West",
    "weather": "Warm",
    "latitude": 32.828,
    "longitude": -79.9729,
    "loyalty": 6,
    "media_pressure": 8,
    "cost_of_living": 4,
    "stadium_quality": 10
  },
  {
    "city": "Salinas",
    "state": "California",
    "population": 156916,
    "region": "West",
    "weather": "Warm",
    "latitude": 36.6902,
    "longitude": -121.634,
    "loyalty": 7,
    "media_pressure": 5,
    "cost_of_living": 3,
    "stadium_quality": 6
  },
  {
    "city": "Palmdale",
    "state": "California",
    "population": 156410,
    "region": "West",
    "weather": "Warm",
    "latitude": 34.591,
    "longitude": -118.105,
    "loyalty": 5,
    "media_pressure": 10,
    "cost_of_living": 4,
    "stadium_quality": 6
  },
  {
    "city": "Macon-Bibb County",
    "state": "Georgia",
    "population": 156163,
    "region": "West",
    "weather": "Warm",
    "latitude": 32.8088,
    "longitude": -83.6942,
    "loyalty": 9,
    "media_pressure": 3,
    "cost_of_living": 6,
    "stadium_quality": 8
  },
  {
    "city": "Lakewood",
    "state": "Colorado",
    "population": 155770,
    "region": "West",
    "weather": "Warm",
    "latitude": 39.6989,
    "longitude": -105.118,
    "loyalty": 8,
    "media_pressure": 2,
    "cost_of_living": 6,
    "stadium_quality": 7
  },
  {
    "city": "Hollywood",
    "state": "Florida",
    "population": 154563,
    "region": "West",
    "weather": "Warm",
    "latitude": 26.031,
    "longitude": -80.1646,
    "loyalty": 8,
    "media_pressure": 10,
    "cost_of_living": 7,
    "stadium_quality": 6
  },
  {
    "city": "Paterson",
    "state": "New Jersey",
    "population": 154538,
    "region": "West",
    "weather": "Warm",
    "latitude": 40.9148,
    "longitude": -74.1628,
    "loyalty": 6,
    "media_pressure": 3,
    "cost_of_living": 8,
    "stadium_quality": 9
  },
  {
    "city": "Alexandria",
    "state": "Virginia",
    "population": 152624,
    "region": "West",
    "weather": "Warm",
    "latitude": 38.8193,
    "longitude": -77.0837,
    "loyalty": 8,
    "media_pressure": 10,
    "cost_of_living": 7,
    "stadium_quality": 10
  },
  {
    "city": "Springfield",
    "state": "Massachusetts",
    "population": 152600,
    "region": "West",
    "weather": "Warm",
    "latitude": 42.1155,
    "longitude": -72.54,
    "loyalty": 4,
    "media_pressure": 2,
    "cost_of_living": 8,
    "stadium_quality": 5
  },
  {
    "city": "Bellevue",
    "state": "Washington",
    "population": 151436,
    "region": "West",
    "weather": "Warm",
    "latitude": 47.5978,
    "longitude": -122.156,
    "loyalty": 6,
    "media_pressure": 5,
    "cost_of_living": 10,
    "stadium_quality": 6
  },
  {
    "city": "Olathe",
    "state": "Kansas",
    "population": 151377,
    "region": "West",
    "weather": "Warm",
    "latitude": 38.882,
    "longitude": -94.8201,
    "loyalty": 7,
    "media_pressure": 9,
    "cost_of_living": 3,
    "stadium_quality": 6
  },
  {
    "city": "Hayward",
    "state": "California",
    "population": 151014,
    "region": "West",
    "weather": "Warm",
    "latitude": 37.6268,
    "longitude": -122.104,
    "loyalty": 8,
    "media_pressure": 6,
    "cost_of_living": 3,
    "stadium_quality": 9
  },
  {
    "city": "Naperville",
    "state": "Illinois",
    "population": 150795,
    "region": "West",
    "weather": "Warm",
    "latitude": 41.7492,
    "longitude": -88.162,
    "loyalty": 9,
    "media_pressure": 4,
    "cost_of_living": 10,
    "stadium_quality": 9
  },
  {
    "city": "Kansas City",
    "state": "Kansas",
    "population": 150689,
    "region": "West",
    "weather": "Warm",
    "latitude": 39.1225,
    "longitude": -94.7418,
    "loyalty": 7,
    "media_pressure": 5,
    "cost_of_living": 4,
    "stadium_quality": 10
  },
  {
    "city": "Joliet",
    "state": "Illinois",
    "population": 150647,
    "region": "West",
    "weather": "Warm",
    "latitude": 41.5177,
    "longitude": -88.1488,
    "loyalty": 5,
    "media_pressure": 6,
    "cost_of_living": 3,
    "stadium_quality": 5
  },
  {
    "city": "Sunnyvale",
    "state": "California",
    "population": 149778,
    "region": "West",
    "weather": "Warm",
    "latitude": 37.3858,
    "longitude": -122.026,
    "loyalty": 8,
    "media_pressure": 10,
    "cost_of_living": 3,
    "stadium_quality": 5
  },
  {
    "city": "McAllen",
    "state": "Texas",
    "population": 149385,
    "region": "West",
    "weather": "Warm",
    "latitude": 26.225,
    "longitude": -98.2461,
    "loyalty": 10,
    "media_pressure": 8,
    "cost_of_living": 8,
    "stadium_quality": 6
  },
  {
    "city": "Bridgeport",
    "state": "Connecticut",
    "population": 148235,
    "region": "West",
    "weather": "Warm",
    "latitude": 41.1874,
    "longitude": -73.1958,
    "loyalty": 7,
    "media_pressure": 9,
    "cost_of_living": 8,
    "stadium_quality": 7
  },
  {
    "city": "Gainesville",
    "state": "Florida",
    "population": 148190,
    "region": "West",
    "weather": "Warm",
    "latitude": 29.6795,
    "longitude": -82.3468,
    "loyalty": 6,
    "media_pressure": 8,
    "cost_of_living": 4,
    "stadium_quality": 8
  },
  {
    "city": "Savannah",
    "state": "Georgia",
    "population": 147942,
    "region": "West",
    "weather": "Warm",
    "latitude": 32.018,
    "longitude": -81.1965,
    "loyalty": 7,
    "media_pressure": 3,
    "cost_of_living": 3,
    "stadium_quality": 6
  },
  {
    "city": "Waco",
    "state": "Texas",
    "population": 147666,
    "region": "West",
    "weather": "Warm",
    "latitude": 31.558,
    "longitude": -97.1898,
    "loyalty": 4,
    "media_pressure": 2,
    "cost_of_living": 6,
    "stadium_quality": 9
  },
  {
    "city": "Visalia",
    "state": "California",
    "population": 147149,
    "region": "West",
    "weather": "Warm",
    "latitude": 36.328,
    "longitude": -119.329,
    "loyalty": 7,
    "media_pressure": 8,
    "cost_of_living": 3,
    "stadium_quality": 6
  },
  {
    "city": "Thornton",
    "state": "Colorado",
    "population": 146746,
    "region": "West",
    "weather": "Warm",
    "latitude": 39.9204,
    "longitude": -104.941,
    "loyalty": 4,
    "media_pressure": 10,
    "cost_of_living": 6,
    "stadium_quality": 8
  },
  {
    "city": "Columbia",
    "state": "South Carolina",
    "population": 146563,
    "region": "West",
    "weather": "Warm",
    "latitude": 34.0405,
    "longitude": -80.9061,
    "loyalty": 9,
    "media_pressure": 9,
    "cost_of_living": 8,
    "stadium_quality": 10
  },
  {
    "city": "Escondido",
    "state": "California",
    "population": 146194,
    "region": "West",
    "weather": "Warm",
    "latitude": 33.1331,
    "longitude": -117.074,
    "loyalty": 4,
    "media_pressure": 1,
    "cost_of_living": 3,
    "stadium_quality": 5
  },
  {
    "city": "Palm Bay",
    "state": "Florida",
    "population": 145834,
    "region": "West",
    "weather": "Warm",
    "latitude": 27.9649,
    "longitude": -80.6583,
    "loyalty": 5,
    "media_pressure": 9,
    "cost_of_living": 7,
    "stadium_quality": 5
  },
  {
    "city": "Mesquite",
    "state": "Texas",
    "population": 145777,
    "region": "West",
    "weather": "Warm",
    "latitude": 32.7595,
    "longitude": -96.5842,
    "loyalty": 7,
    "media_pressure": 8,
    "cost_of_living": 9,
    "stadium_quality": 7
  },
  {
    "city": "Meridian",
    "state": "Idaho",
    "population": 145039,
    "region": "West",
    "weather": "Warm",
    "latitude": 43.6115,
    "longitude": -116.401,
    "loyalty": 7,
    "media_pressure": 2,
    "cost_of_living": 7,
    "stadium_quality": 7
  },
  {
    "city": "Syracuse",
    "state": "New York",
    "population": 144782,
    "region": "West",
    "weather": "Warm",
    "latitude": 43.041,
    "longitude": -76.1436,
    "loyalty": 7,
    "media_pressure": 2,
    "cost_of_living": 7,
    "stadium_quality": 7
  },
  {
    "city": "Rockford",
    "state": "Illinois",
    "population": 144420,
    "region": "West",
    "weather": "Warm",
    "latitude": 42.2588,
    "longitude": -89.0646,
    "loyalty": 4,
    "media_pressure": 4,
    "cost_of_living": 6,
    "stadium_quality": 5
  },
  {
    "city": "Pasadena",
    "state": "Texas",
    "population": 143614,
    "region": "West",
    "weather": "Warm",
    "latitude": 29.655,
    "longitude": -95.1511,
    "loyalty": 9,
    "media_pressure": 8,
    "cost_of_living": 5,
    "stadium_quality": 5
  },
  {
    "city": "Midland",
    "state": "Texas",
    "population": 142068,
    "region": "West",
    "weather": "Warm",
    "latitude": 32.0246,
    "longitude": -102.113,
    "loyalty": 6,
    "media_pressure": 6,
    "cost_of_living": 8,
    "stadium_quality": 6
  },
  {
    "city": "Pomona",
    "state": "California",
    "population": 141847,
    "region": "West",
    "weather": "Warm",
    "latitude": 34.0585,
    "longitude": -117.761,
    "loyalty": 6,
    "media_pressure": 10,
    "cost_of_living": 5,
    "stadium_quality": 8
  },
  {
    "city": "Victorville",
    "state": "California",
    "population": 141689,
    "region": "West",
    "weather": "Warm",
    "latitude": 34.5277,
    "longitude": -117.354,
    "loyalty": 9,
    "media_pressure": 10,
    "cost_of_living": 3,
    "stadium_quality": 10
  },
  {
    "city": "Miramar",
    "state": "Florida",
    "population": 140854,
    "region": "West",
    "weather": "Warm",
    "latitude": 25.9725,
    "longitude": -80.3386,
    "loyalty": 8,
    "media_pressure": 10,
    "cost_of_living": 6,
    "stadium_quality": 6
  },
  {
    "city": "Metairie",
    "state": "Louisiana",
    "population": 140437,
    "region": "West",
    "weather": "Warm",
    "latitude": 29.9978,
    "longitude": -90.1778,
    "loyalty": 9,
    "media_pressure": 1,
    "cost_of_living": 9,
    "stadium_quality": 9
  },
  {
    "city": "New Haven",
    "state": "Connecticut",
    "population": 139027,
    "region": "West",
    "weather": "Warm",
    "latitude": 41.3108,
    "longitude": -72.9249,
    "loyalty": 6,
    "media_pressure": 10,
    "cost_of_living": 10,
    "stadium_quality": 6
  },
  {
    "city": "Lewisville",
    "state": "Texas",
    "population": 138307,
    "region": "West",
    "weather": "Warm",
    "latitude": 33.0507,
    "longitude": -96.9746,
    "loyalty": 10,
    "media_pressure": 2,
    "cost_of_living": 7,
    "stadium_quality": 5
  },
  {
    "city": "Fargo",
    "state": "North Dakota",
    "population": 137989,
    "region": "West",
    "weather": "Warm",
    "latitude": 46.8647,
    "longitude": -96.8291,
    "loyalty": 5,
    "media_pressure": 1,
    "cost_of_living": 10,
    "stadium_quality": 7
  },
  {
    "city": "Orange",
    "state": "California",
    "population": 137594,
    "region": "West",
    "weather": "Warm",
    "latitude": 33.787,
    "longitude": -117.861,
    "loyalty": 9,
    "media_pressure": 3,
    "cost_of_living": 9,
    "stadium_quality": 8
  },
  {
    "city": "Jackson",
    "state": "Mississippi",
    "population": 137517,
    "region": "West",
    "weather": "Warm",
    "latitude": 32.3158,
    "longitude": -90.2129,
    "loyalty": 8,
    "media_pressure": 7,
    "cost_of_living": 3,
    "stadium_quality": 6
  },
  {
    "city": "Round Rock",
    "state": "Texas",
    "population": 136977,
    "region": "West",
    "weather": "Warm",
    "latitude": 30.5268,
    "longitude": -97.6601,
    "loyalty": 5,
    "media_pressure": 3,
    "cost_of_living": 9,
    "stadium_quality": 7
  },
  {
    "city": "Hampton",
    "state": "Virginia",
    "population": 136976,
    "region": "West",
    "weather": "Warm",
    "latitude": 37.048,
    "longitude": -76.2973,
    "loyalty": 10,
    "media_pressure": 1,
    "cost_of_living": 9,
    "stadium_quality": 8
  },
  {
    "city": "Stamford",
    "state": "Connecticut",
    "population": 136735,
    "region": "West",
    "weather": "Warm",
    "latitude": 41.0796,
    "longitude": -73.5461,
    "loyalty": 4,
    "media_pressure": 10,
    "cost_of_living": 7,
    "stadium_quality": 7
  },
  {
    "city": "Fullerton",
    "state": "California",
    "population": 136572,
    "region": "West",
    "weather": "Warm",
    "latitude": 33.8857,
    "longitude": -117.928,
    "loyalty": 4,
    "media_pressure": 3,
    "cost_of_living": 7,
    "stadium_quality": 5
  },
  {
    "city": "Coral Springs",
    "state": "Florida",
    "population": 135398,
    "region": "West",
    "weather": "Warm",
    "latitude": 26.2707,
    "longitude": -80.2593,
    "loyalty": 5,
    "media_pressure": 1,
    "cost_of_living": 6,
    "stadium_quality": 8
  },
  {
    "city": "Elizabeth",
    "state": "New Jersey",
    "population": 135263,
    "region": "West",
    "weather": "Warm",
    "latitude": 40.6664,
    "longitude": -74.1935,
    "loyalty": 7,
    "media_pressure": 5,
    "cost_of_living": 4,
    "stadium_quality": 8
  },
  {
    "city": "Warren",
    "state": "Michigan",
    "population": 135010,
    "region": "West",
    "weather": "Warm",
    "latitude": 42.4929,
    "longitude": -83.025,
    "loyalty": 5,
    "media_pressure": 6,
    "cost_of_living": 6,
    "stadium_quality": 10
  },
  {
    "city": "Cedar Rapids",
    "state": "Iowa",
    "population": 134758,
    "region": "West",
    "weather": "Warm",
    "latitude": 41.9659,
    "longitude": -91.6789,
    "loyalty": 5,
    "media_pressure": 10,
    "cost_of_living": 10,
    "stadium_quality": 7
  },
  {
    "city": "Torrance",
    "state": "California",
    "population": 134412,
    "region": "West",
    "weather": "Warm",
    "latitude": 33.8305,
    "longitude": -118.357,
    "loyalty": 6,
    "media_pressure": 3,
    "cost_of_living": 9,
    "stadium_quality": 6
  },
  {
    "city": "Dayton",
    "state": "Ohio",
    "population": 134189,
    "region": "West",
    "weather": "Warm",
    "latitude": 39.7847,
    "longitude": -84.1996,
    "loyalty": 5,
    "media_pressure": 7,
    "cost_of_living": 9,
    "stadium_quality": 7
  },
  {
    "city": "Lehigh Acres",
    "state": "Florida",
    "population": 133854,
    "region": "West",
    "weather": "Warm",
    "latitude": 26.6127,
    "longitude": -81.6388,
    "loyalty": 4,
    "media_pressure": 10,
    "cost_of_living": 7,
    "stadium_quality": 8
  },
  {
    "city": "Sterling Heights",
    "state": "Michigan",
    "population": 132804,
    "region": "West",
    "weather": "Warm",
    "latitude": 42.5812,
    "longitude": -83.0303,
    "loyalty": 6,
    "media_pressure": 2,
    "cost_of_living": 10,
    "stadium_quality": 9
  },
  {
    "city": "Santa Clara",
    "state": "California",
    "population": 132711,
    "region": "West",
    "weather": "Warm",
    "latitude": 37.3646,
    "longitude": -121.968,
    "loyalty": 5,
    "media_pressure": 8,
    "cost_of_living": 6,
    "stadium_quality": 7
  },
  {
    "city": "Carrollton",
    "state": "Texas",
    "population": 132495,
    "region": "West",
    "weather": "Warm",
    "latitude": 32.9894,
    "longitude": -96.8999,
    "loyalty": 10,
    "media_pressure": 9,
    "cost_of_living": 10,
    "stadium_quality": 10
  },
  {
    "city": "Abilene",
    "state": "Texas",
    "population": 131460,
    "region": "West",
    "weather": "Warm",
    "latitude": 32.4545,
    "longitude": -99.7381,
    "loyalty": 5,
    "media_pressure": 4,
    "cost_of_living": 7,
    "stadium_quality": 9
  },
  {
    "city": "Columbia",
    "state": "Missouri",
    "population": 131345,
    "region": "West",
    "weather": "Warm",
    "latitude": 38.9473,
    "longitude": -92.3264,
    "loyalty": 8,
    "media_pressure": 1,
    "cost_of_living": 8,
    "stadium_quality": 5
  },
  {
    "city": "Norman",
    "state": "Oklahoma",
    "population": 131302,
    "region": "West",
    "weather": "Warm",
    "latitude": 35.2406,
    "longitude": -97.3453,
    "loyalty": 8,
    "media_pressure": 10,
    "cost_of_living": 3,
    "stadium_quality": 9
  },
  {
    "city": "Kent",
    "state": "Washington",
    "population": 131235,
    "region": "West",
    "weather": "Warm",
    "latitude": 47.388,
    "longitude": -122.213,
    "loyalty": 6,
    "media_pressure": 9,
    "cost_of_living": 9,
    "stadium_quality": 7
  },
  {
    "city": "West Valley City",
    "state": "Utah",
    "population": 130801,
    "region": "West",
    "weather": "Warm",
    "latitude": 40.6885,
    "longitude": -112.012,
    "loyalty": 8,
    "media_pressure": 7,
    "cost_of_living": 7,
    "stadium_quality": 5
  },
  {
    "city": "Pasadena",
    "state": "California",
    "population": 130292,
    "region": "West",
    "weather": "Warm",
    "latitude": 34.1606,
    "longitude": -118.138,
    "loyalty": 7,
    "media_pressure": 4,
    "cost_of_living": 8,
    "stadium_quality": 5
  },
  {
    "city": "Athens",
    "state": "Georgia",
    "population": 129550,
    "region": "West",
    "weather": "Warm",
    "latitude": 33.9496,
    "longitude": -83.3701,
    "loyalty": 9,
    "media_pressure": 5,
    "cost_of_living": 9,
    "stadium_quality": 6
  },
  {
    "city": "Clovis",
    "state": "California",
    "population": 129196,
    "region": "West",
    "weather": "Warm",
    "latitude": 36.829,
    "longitude": -119.685,
    "loyalty": 5,
    "media_pressure": 6,
    "cost_of_living": 4,
    "stadium_quality": 6
  },
  {
    "city": "Pearland",
    "state": "Texas",
    "population": 128896,
    "region": "West",
    "weather": "Warm",
    "latitude": 29.5557,
    "longitude": -95.323,
    "loyalty": 9,
    "media_pressure": 6,
    "cost_of_living": 3,
    "stadium_quality": 9
  },
  {
    "city": "West Palm Beach",
    "state": "Florida",
    "population": 128545,
    "region": "West",
    "weather": "Warm",
    "latitude": 26.7451,
    "longitude": -80.127,
    "loyalty": 9,
    "media_pressure": 3,
    "cost_of_living": 4,
    "stadium_quality": 8
  },
  {
    "city": "College Station",
    "state": "Texas",
    "population": 128139,
    "region": "West",
    "weather": "Warm",
    "latitude": 30.5852,
    "longitude": -96.2964,
    "loyalty": 8,
    "media_pressure": 7,
    "cost_of_living": 10,
    "stadium_quality": 10
  },
  {
    "city": "Lakeland",
    "state": "Florida",
    "population": 127848,
    "region": "West",
    "weather": "Warm",
    "latitude": 28.0555,
    "longitude": -81.9548,
    "loyalty": 10,
    "media_pressure": 1,
    "cost_of_living": 4,
    "stadium_quality": 9
  },
  {
    "city": "Wilmington",
    "state": "North Carolina",
    "population": 127316,
    "region": "West",
    "weather": "Warm",
    "latitude": 34.2092,
    "longitude": -77.8858,
    "loyalty": 7,
    "media_pressure": 2,
    "cost_of_living": 8,
    "stadium_quality": 8
  },
  {
    "city": "North Charleston",
    "state": "South Carolina",
    "population": 125414,
    "region": "West",
    "weather": "Warm",
    "latitude": 32.9179,
    "longitude": -80.065,
    "loyalty": 7,
    "media_pressure": 5,
    "cost_of_living": 4,
    "stadium_quality": 6
  },
  {
    "city": "Topeka",
    "state": "Kansas",
    "population": 124833,
    "region": "West",
    "weather": "Warm",
    "latitude": 39.0347,
    "longitude": -95.6948,
    "loyalty": 4,
    "media_pressure": 5,
    "cost_of_living": 10,
    "stadium_quality": 5
  },
  {
    "city": "The Woodlands",
    "state": "Texas",
    "population": 124541,
    "region": "West",
    "weather": "Warm",
    "latitude": 30.1726,
    "longitude": -95.5098,
    "loyalty": 7,
    "media_pressure": 7,
    "cost_of_living": 4,
    "stadium_quality": 6
  },
  {
    "city": "Allentown",
    "state": "Pennsylvania",
    "population": 124315,
    "region": "West",
    "weather": "Warm",
    "latitude": 40.5936,
    "longitude": -75.4784,
    "loyalty": 7,
    "media_pressure": 8,
    "cost_of_living": 6,
    "stadium_quality": 5
  },
  {
    "city": "Simi Valley",
    "state": "California",
    "population": 124293,
    "region": "West",
    "weather": "Warm",
    "latitude": 34.2669,
    "longitude": -118.748,
    "loyalty": 7,
    "media_pressure": 9,
    "cost_of_living": 4,
    "stadium_quality": 10
  },
  {
    "city": "New Braunfels",
    "state": "Texas",
    "population": 123834,
    "region": "West",
    "weather": "Warm",
    "latitude": 29.6993,
    "longitude": -98.1151,
    "loyalty": 6,
    "media_pressure": 6,
    "cost_of_living": 5,
    "stadium_quality": 5
  },
  {
    "city": "Billings",
    "state": "Montana",
    "population": 123290,
    "region": "West",
    "weather": "Warm",
    "latitude": 45.7885,
    "longitude": -108.552,
    "loyalty": 6,
    "media_pressure": 10,
    "cost_of_living": 10,
    "stadium_quality": 10
  },
  {
    "city": "Rochester",
    "state": "Minnesota",
    "population": 122971,
    "region": "West",
    "weather": "Warm",
    "latitude": 44.0143,
    "longitude": -92.4786,
    "loyalty": 7,
    "media_pressure": 6,
    "cost_of_living": 10,
    "stadium_quality": 7
  },
  {
    "city": "Nampa",
    "state": "Idaho",
    "population": 122906,
    "region": "West",
    "weather": "Warm",
    "latitude": 43.5855,
    "longitude": -116.566,
    "loyalty": 5,
    "media_pressure": 3,
    "cost_of_living": 8,
    "stadium_quality": 8
  },
  {
    "city": "Broken Arrow",
    "state": "Oklahoma",
    "population": 122704,
    "region": "West",
    "weather": "Warm",
    "latitude": 36.0365,
    "longitude": -95.781,
    "loyalty": 4,
    "media_pressure": 1,
    "cost_of_living": 5,
    "stadium_quality": 8
  },
  {
    "city": "Lafayette",
    "state": "Louisiana",
    "population": 121475,
    "region": "West",
    "weather": "Warm",
    "latitude": 30.2056,
    "longitude": -92.0281,
    "loyalty": 10,
    "media_pressure": 5,
    "cost_of_living": 5,
    "stadium_quality": 6
  },
  {
    "city": "Spring Hill",
    "state": "Florida",
    "population": 121447,
    "region": "West",
    "weather": "Warm",
    "latitude": 28.4792,
    "longitude": -82.5297,
    "loyalty": 6,
    "media_pressure": 1,
    "cost_of_living": 8,
    "stadium_quality": 9
  },
  {
    "city": "Fairfield",
    "state": "California",
    "population": 121391,
    "region": "West",
    "weather": "Warm",
    "latitude": 38.2621,
    "longitude": -122.032,
    "loyalty": 10,
    "media_pressure": 7,
    "cost_of_living": 3,
    "stadium_quality": 9
  },
  {
    "city": "Thousand Oaks",
    "state": "California",
    "population": 121222,
    "region": "West",
    "weather": "Warm",
    "latitude": 34.1933,
    "longitude": -118.874,
    "loyalty": 4,
    "media_pressure": 2,
    "cost_of_living": 5,
    "stadium_quality": 10
  },
  {
    "city": "Goodyear",
    "state": "Arizona",
    "population": 121116,
    "region": "West",
    "weather": "Warm",
    "latitude": 33.254,
    "longitude": -112.366,
    "loyalty": 5,
    "media_pressure": 3,
    "cost_of_living": 6,
    "stadium_quality": 9
  },
  {
    "city": "Vallejo",
    "state": "California",
    "population": 120749,
    "region": "West",
    "weather": "Warm",
    "latitude": 38.1069,
    "longitude": -122.262,
    "loyalty": 4,
    "media_pressure": 1,
    "cost_of_living": 8,
    "stadium_quality": 7
  },
  {
    "city": "Concord",
    "state": "California",
    "population": 120334,
    "region": "West",
    "weather": "Warm",
    "latitude": 37.9722,
    "longitude": -122.002,
    "loyalty": 5,
    "media_pressure": 4,
    "cost_of_living": 4,
    "stadium_quality": 5
  },
  {
    "city": "Menifee",
    "state": "California",
    "population": 120236,
    "region": "West",
    "weather": "Warm",
    "latitude": 33.6899,
    "longitude": -117.184,
    "loyalty": 5,
    "media_pressure": 8,
    "cost_of_living": 8,
    "stadium_quality": 10
  },
  {
    "city": "Independence",
    "state": "Missouri",
    "population": 119604,
    "region": "West",
    "weather": "Warm",
    "latitude": 39.0855,
    "longitude": -94.3521,
    "loyalty": 4,
    "media_pressure": 8,
    "cost_of_living": 8,
    "stadium_quality": 7
  },
  {
    "city": "Hartford",
    "state": "Connecticut",
    "population": 119583,
    "region": "West",
    "weather": "Warm",
    "latitude": 41.7659,
    "longitude": -72.6816,
    "loyalty": 10,
    "media_pressure": 5,
    "cost_of_living": 4,
    "stadium_quality": 6
  },
  {
    "city": "Conroe",
    "state": "Texas",
    "population": 119576,
    "region": "West",
    "weather": "Warm",
    "latitude": 30.3287,
    "longitude": -95.4846,
    "loyalty": 10,
    "media_pressure": 5,
    "cost_of_living": 10,
    "stadium_quality": 9
  },
  {
    "city": "Arvada",
    "state": "Colorado",
    "population": 119461,
    "region": "West",
    "weather": "Warm",
    "latitude": 39.8337,
    "longitude": -105.15,
    "loyalty": 6,
    "media_pressure": 9,
    "cost_of_living": 6,
    "stadium_quality": 8
  },
  {
    "city": "Buckeye",
    "state": "Arizona",
    "population": 119007,
    "region": "West",
    "weather": "Warm",
    "latitude": 33.4316,
    "longitude": -112.642,
    "loyalty": 9,
    "media_pressure": 2,
    "cost_of_living": 5,
    "stadium_quality": 6
  },
  {
    "city": "High Point",
    "state": "North Carolina",
    "population": 118312,
    "region": "West",
    "weather": "Warm",
    "latitude": 35.9908,
    "longitude": -79.9927,
    "loyalty": 6,
    "media_pressure": 1,
    "cost_of_living": 5,
    "stadium_quality": 6
  },
  {
    "city": "Antioch",
    "state": "California",
    "population": 118240,
    "region": "West",
    "weather": "Warm",
    "latitude": 37.9783,
    "longitude": -121.796,
    "loyalty": 4,
    "media_pressure": 3,
    "cost_of_living": 5,
    "stadium_quality": 7
  },
  {
    "city": "Cambridge",
    "state": "Massachusetts",
    "population": 118211,
    "region": "West",
    "weather": "Warm",
    "latitude": 42.376,
    "longitude": -71.1187,
    "loyalty": 10,
    "media_pressure": 9,
    "cost_of_living": 3,
    "stadium_quality": 10
  },
  {
    "city": "Brandon",
    "state": "Florida",
    "population": 117783,
    "region": "West",
    "weather": "Warm",
    "latitude": 27.936,
    "longitude": -82.2993,
    "loyalty": 9,
    "media_pressure": 2,
    "cost_of_living": 4,
    "stadium_quality": 9
  },
  {
    "city": "League City",
    "state": "Texas",
    "population": 117428,
    "region": "West",
    "weather": "Warm",
    "latitude": 29.4901,
    "longitude": -95.1091,
    "loyalty": 7,
    "media_pressure": 1,
    "cost_of_living": 7,
    "stadium_quality": 10
  },
  {
    "city": "Las Cruces",
    "state": "New Mexico",
    "population": 117021,
    "region": "West",
    "weather": "Warm",
    "latitude": 32.3264,
    "longitude": -106.79,
    "loyalty": 5,
    "media_pressure": 6,
    "cost_of_living": 4,
    "stadium_quality": 10
  },
  {
    "city": "Ann Arbor",
    "state": "Michigan",
    "population": 116561,
    "region": "West",
    "weather": "Warm",
    "latitude": 42.2761,
    "longitude": -83.7309,
    "loyalty": 8,
    "media_pressure": 7,
    "cost_of_living": 8,
    "stadium_quality": 5
  },
  {
    "city": "Clearwater",
    "state": "Florida",
    "population": 116528,
    "region": "West",
    "weather": "Warm",
    "latitude": 27.9794,
    "longitude": -82.7713,
    "loyalty": 5,
    "media_pressure": 9,
    "cost_of_living": 10,
    "stadium_quality": 10
  },
  {
    "city": "Odessa",
    "state": "Texas",
    "population": 116287,
    "region": "West",
    "weather": "Warm",
    "latitude": 31.8805,
    "longitude": -102.345,
    "loyalty": 10,
    "media_pressure": 8,
    "cost_of_living": 8,
    "stadium_quality": 5
  },
  {
    "city": "Richardson",
    "state": "Texas",
    "population": 116192,
    "region": "West",
    "weather": "Warm",
    "latitude": 32.9723,
    "longitude": -96.7081,
    "loyalty": 4,
    "media_pressure": 10,
    "cost_of_living": 7,
    "stadium_quality": 7
  },
  {
    "city": "Tuscaloosa",
    "state": "Alabama",
    "population": 116085,
    "region": "West",
    "weather": "Warm",
    "latitude": 33.2344,
    "longitude": -87.5283,
    "loyalty": 9,
    "media_pressure": 7,
    "cost_of_living": 9,
    "stadium_quality": 6
  },
  {
    "city": "Waterbury",
    "state": "Connecticut",
    "population": 115730,
    "region": "West",
    "weather": "Warm",
    "latitude": 41.5585,
    "longitude": -73.0367,
    "loyalty": 6,
    "media_pressure": 2,
    "cost_of_living": 8,
    "stadium_quality": 7
  },
  {
    "city": "Allen",
    "state": "Texas",
    "population": 115668,
    "region": "West",
    "weather": "Warm",
    "latitude": 33.1097,
    "longitude": -96.673,
    "loyalty": 8,
    "media_pressure": 5,
    "cost_of_living": 8,
    "stadium_quality": 9
  },
  {
    "city": "Berkeley",
    "state": "California",
    "population": 115466,
    "region": "West",
    "weather": "Warm",
    "latitude": 37.8657,
    "longitude": -122.299,
    "loyalty": 4,
    "media_pressure": 8,
    "cost_of_living": 4,
    "stadium_quality": 6
  },
  {
    "city": "Manchester",
    "state": "New Hampshire",
    "population": 115451,
    "region": "West",
    "weather": "Warm",
    "latitude": 42.9849,
    "longitude": -71.4441,
    "loyalty": 10,
    "media_pressure": 8,
    "cost_of_living": 5,
    "stadium_quality": 8
  },
  {
    "city": "East Los Angeles",
    "state": "California",
    "population": 114904,
    "region": "West",
    "weather": "Warm",
    "latitude": 34.0315,
    "longitude": -118.169,
    "loyalty": 9,
    "media_pressure": 8,
    "cost_of_living": 9,
    "stadium_quality": 6
  },
  {
    "city": "Greeley",
    "state": "Colorado",
    "population": 114833,
    "region": "West",
    "weather": "Warm",
    "latitude": 40.414,
    "longitude": -104.771,
    "loyalty": 8,
    "media_pressure": 9,
    "cost_of_living": 9,
    "stadium_quality": 9
  },
  {
    "city": "Rio Rancho",
    "state": "New Mexico",
    "population": 114811,
    "region": "West",
    "weather": "Warm",
    "latitude": 35.2851,
    "longitude": -106.699,
    "loyalty": 9,
    "media_pressure": 8,
    "cost_of_living": 7,
    "stadium_quality": 8
  },
  {
    "city": "Pompano Beach",
    "state": "Florida",
    "population": 114727,
    "region": "West",
    "weather": "Warm",
    "latitude": 26.2416,
    "longitude": -80.1339,
    "loyalty": 8,
    "media_pressure": 10,
    "cost_of_living": 10,
    "stadium_quality": 5
  },
  {
    "city": "Georgetown",
    "state": "Texas",
    "population": 114687,
    "region": "West",
    "weather": "Warm",
    "latitude": 30.6681,
    "longitude": -97.6987,
    "loyalty": 9,
    "media_pressure": 4,
    "cost_of_living": 6,
    "stadium_quality": 6
  },
  {
    "city": "Evansville",
    "state": "Indiana",
    "population": 113971,
    "region": "West",
    "weather": "Warm",
    "latitude": 37.9877,
    "longitude": -87.5347,
    "loyalty": 7,
    "media_pressure": 1,
    "cost_of_living": 7,
    "stadium_quality": 6
  },
  {
    "city": "Westminster",
    "state": "Colorado",
    "population": 113729,
    "region": "West",
    "weather": "Warm",
    "latitude": 39.8801,
    "longitude": -105.062,
    "loyalty": 7,
    "media_pressure": 9,
    "cost_of_living": 5,
    "stadium_quality": 7
  },
  {
    "city": "Concord",
    "state": "North Carolina",
    "population": 113608,
    "region": "West",
    "weather": "Warm",
    "latitude": 35.3921,
    "longitude": -80.6355,
    "loyalty": 6,
    "media_pressure": 7,
    "cost_of_living": 9,
    "stadium_quality": 8
  },
  {
    "city": "Lowell",
    "state": "Massachusetts",
    "population": 113518,
    "region": "West",
    "weather": "Warm",
    "latitude": 42.639,
    "longitude": -71.321,
    "loyalty": 10,
    "media_pressure": 7,
    "cost_of_living": 6,
    "stadium_quality": 9
  },
  {
    "city": "West Jordan",
    "state": "Utah",
    "population": 113492,
    "region": "West",
    "weather": "Warm",
    "latitude": 40.6027,
    "longitude": -112.001,
    "loyalty": 8,
    "media_pressure": 6,
    "cost_of_living": 8,
    "stadium_quality": 8
  },
  {
    "city": "Tyler",
    "state": "Texas",
    "population": 113030,
    "region": "West",
    "weather": "Warm",
    "latitude": 32.3173,
    "longitude": -95.3059,
    "loyalty": 10,
    "media_pressure": 2,
    "cost_of_living": 9,
    "stadium_quality": 5
  },
  {
    "city": "South Fulton",
    "state": "Georgia",
    "population": 112726,
    "region": "West",
    "weather": "Warm",
    "latitude": 33.6357,
    "longitude": -84.5834,
    "loyalty": 9,
    "media_pressure": 1,
    "cost_of_living": 10,
    "stadium_quality": 5
  },
  {
    "city": "Richmond",
    "state": "California",
    "population": 112712,
    "region": "West",
    "weather": "Warm",
    "latitude": 37.9523,
    "longitude": -122.361,
    "loyalty": 9,
    "media_pressure": 4,
    "cost_of_living": 6,
    "stadium_quality": 7
  },
  {
    "city": "Carlsbad",
    "state": "California",
    "population": 112542,
    "region": "West",
    "weather": "Warm",
    "latitude": 33.1293,
    "longitude": -117.284,
    "loyalty": 4,
    "media_pressure": 7,
    "cost_of_living": 7,
    "stadium_quality": 8
  },
  {
    "city": "Elgin",
    "state": "Illinois",
    "population": 112438,
    "region": "West",
    "weather": "Warm",
    "latitude": 42.039,
    "longitude": -88.3257,
    "loyalty": 5,
    "media_pressure": 1,
    "cost_of_living": 8,
    "stadium_quality": 6
  },
  {
    "city": "Murrieta",
    "state": "California",
    "population": 112366,
    "region": "West",
    "weather": "Warm",
    "latitude": 33.5721,
    "longitude": -117.19,
    "loyalty": 7,
    "media_pressure": 3,
    "cost_of_living": 5,
    "stadium_quality": 5
  },
  {
    "city": "Provo",
    "state": "Utah",
    "population": 112169,
    "region": "West",
    "weather": "Warm",
    "latitude": 40.2453,
    "longitude": -111.645,
    "loyalty": 4,
    "media_pressure": 10,
    "cost_of_living": 4,
    "stadium_quality": 6
  },
  {
    "city": "Lansing",
    "state": "Michigan",
    "population": 111814,
    "region": "West",
    "weather": "Warm",
    "latitude": 42.7143,
    "longitude": -84.5609,
    "loyalty": 8,
    "media_pressure": 8,
    "cost_of_living": 7,
    "stadium_quality": 6
  },
  {
    "city": "Springfield",
    "state": "Illinois",
    "population": 111374,
    "region": "West",
    "weather": "Warm",
    "latitude": 39.7911,
    "longitude": -89.6446,
    "loyalty": 4,
    "media_pressure": 3,
    "cost_of_living": 10,
    "stadium_quality": 7
  },
  {
    "city": "Everett",
    "state": "Washington",
    "population": 111371,
    "region": "West",
    "weather": "Warm",
    "latitude": 47.9654,
    "longitude": -122.19,
    "loyalty": 6,
    "media_pressure": 1,
    "cost_of_living": 9,
    "stadium_quality": 7
  },
  {
    "city": "Spokane Valley",
    "state": "Washington",
    "population": 111371,
    "region": "West",
    "weather": "Warm",
    "latitude": 47.6634,
    "longitude": -117.233,
    "loyalty": 7,
    "media_pressure": 7,
    "cost_of_living": 7,
    "stadium_quality": 7
  },
  {
    "city": "Sparks",
    "state": "Nevada",
    "population": 111279,
    "region": "West",
    "weather": "Warm",
    "latitude": 39.5743,
    "longitude": -119.715,
    "loyalty": 8,
    "media_pressure": 8,
    "cost_of_living": 7,
    "stadium_quality": 6
  },
  {
    "city": "Temecula",
    "state": "California",
    "population": 111074,
    "region": "West",
    "weather": "Warm",
    "latitude": 33.4931,
    "longitude": -117.132,
    "loyalty": 5,
    "media_pressure": 6,
    "cost_of_living": 8,
    "stadium_quality": 8
  },
  {
    "city": "Pueblo",
    "state": "Colorado",
    "population": 110529,
    "region": "West",
    "weather": "Warm",
    "latitude": 38.2692,
    "longitude": -104.611,
    "loyalty": 6,
    "media_pressure": 7,
    "cost_of_living": 6,
    "stadium_quality": 7
  },
  {
    "city": "Beaumont",
    "state": "Texas",
    "population": 110417,
    "region": "West",
    "weather": "Warm",
    "latitude": 30.0849,
    "longitude": -94.1453,
    "loyalty": 4,
    "media_pressure": 2,
    "cost_of_living": 7,
    "stadium_quality": 7
  },
  {
    "city": "Palm Coast",
    "state": "Florida",
    "population": 110362,
    "region": "West",
    "weather": "Warm",
    "latitude": 29.5368,
    "longitude": -81.2426,
    "loyalty": 5,
    "media_pressure": 1,
    "cost_of_living": 5,
    "stadium_quality": 8
  },
  {
    "city": "Riverview",
    "state": "Florida",
    "population": 110321,
    "region": "West",
    "weather": "Warm",
    "latitude": 27.8243,
    "longitude": -82.3045,
    "loyalty": 10,
    "media_pressure": 9,
    "cost_of_living": 8,
    "stadium_quality": 6
  },
  {
    "city": "St. George",
    "state": "Utah",
    "population": 110270,
    "region": "West",
    "weather": "Warm",
    "latitude": 37.077,
    "longitude": -113.577,
    "loyalty": 5,
    "media_pressure": 4,
    "cost_of_living": 7,
    "stadium_quality": 9
  },
  {
    "city": "Miami Gardens",
    "state": "Florida",
    "population": 110210,
    "region": "West",
    "weather": "Warm",
    "latitude": 25.9489,
    "longitude": -80.2436,
    "loyalty": 5,
    "media_pressure": 10,
    "cost_of_living": 8,
    "stadium_quality": 7
  },
  {
    "city": "Santa Maria",
    "state": "California",
    "population": 110123,
    "region": "West",
    "weather": "Warm",
    "latitude": 34.9331,
    "longitude": -120.444,
    "loyalty": 6,
    "media_pressure": 5,
    "cost_of_living": 10,
    "stadium_quality": 7
  },
  {
    "city": "Edinburg",
    "state": "Texas",
    "population": 109191,
    "region": "West",
    "weather": "Warm",
    "latitude": 26.3211,
    "longitude": -98.1628,
    "loyalty": 4,
    "media_pressure": 7,
    "cost_of_living": 3,
    "stadium_quality": 8
  },
  {
    "city": "Davie",
    "state": "Florida",
    "population": 108978,
    "region": "West",
    "weather": "Warm",
    "latitude": 26.0792,
    "longitude": -80.283,
    "loyalty": 6,
    "media_pressure": 7,
    "cost_of_living": 10,
    "stadium_quality": 8
  },
  {
    "city": "Peoria",
    "state": "Illinois",
    "population": 108870,
    "region": "West",
    "weather": "Warm",
    "latitude": 40.7516,
    "longitude": -89.6172,
    "loyalty": 6,
    "media_pressure": 6,
    "cost_of_living": 9,
    "stadium_quality": 6
  },
  {
    "city": "Jurupa Valley",
    "state": "California",
    "population": 108631,
    "region": "West",
    "weather": "Warm",
    "latitude": 34.0026,
    "longitude": -117.468,
    "loyalty": 7,
    "media_pressure": 10,
    "cost_of_living": 8,
    "stadium_quality": 7
  },
  {
    "city": "Columbia",
    "state": "Maryland",
    "population": 108346,
    "region": "West",
    "weather": "Warm",
    "latitude": 39.2011,
    "longitude": -76.859,
    "loyalty": 7,
    "media_pressure": 3,
    "cost_of_living": 4,
    "stadium_quality": 8
  },
  {
    "city": "Hillsboro",
    "state": "Oregon",
    "population": 108223,
    "region": "West",
    "weather": "Warm",
    "latitude": 45.5268,
    "longitude": -122.935,
    "loyalty": 10,
    "media_pressure": 4,
    "cost_of_living": 10,
    "stadium_quality": 6
  },
  {
    "city": "Gresham",
    "state": "Oregon",
    "population": 108161,
    "region": "West",
    "weather": "Warm",
    "latitude": 45.5023,
    "longitude": -122.442,
    "loyalty": 10,
    "media_pressure": 5,
    "cost_of_living": 7,
    "stadium_quality": 7
  },
  {
    "city": "San Buenaventura (Ventura)",
    "state": "California",
    "population": 108016,
    "region": "West",
    "weather": "Warm",
    "latitude": 34.2678,
    "longitude": -119.254,
    "loyalty": 4,
    "media_pressure": 6,
    "cost_of_living": 4,
    "stadium_quality": 6
  },
  {
    "city": "Bend",
    "state": "Oregon",
    "population": 107812,
    "region": "West",
    "weather": "Warm",
    "latitude": 44.0567,
    "longitude": -121.308,
    "loyalty": 10,
    "media_pressure": 10,
    "cost_of_living": 4,
    "stadium_quality": 8
  },
  {
    "city": "Fishers",
    "state": "Indiana",
    "population": 107169,
    "region": "West",
    "weather": "Warm",
    "latitude": 39.9618,
    "longitude": -85.9684,
    "loyalty": 9,
    "media_pressure": 9,
    "cost_of_living": 6,
    "stadium_quality": 7
  },
  {
    "city": "Sugar Land",
    "state": "Texas",
    "population": 106975,
    "region": "West",
    "weather": "Warm",
    "latitude": 29.5928,
    "longitude": -95.6338,
    "loyalty": 5,
    "media_pressure": 9,
    "cost_of_living": 4,
    "stadium_quality": 5
  },
  {
    "city": "Fayetteville",
    "state": "Arkansas",
    "population": 106278,
    "region": "West",
    "weather": "Warm",
    "latitude": 36.0715,
    "longitude": -94.1666,
    "loyalty": 9,
    "media_pressure": 8,
    "cost_of_living": 5,
    "stadium_quality": 9
  },
  {
    "city": "San Tan Valley",
    "state": "Arizona",
    "population": 106179,
    "region": "West",
    "weather": "Warm",
    "latitude": 33.1786,
    "longitude": -111.563,
    "loyalty": 7,
    "media_pressure": 6,
    "cost_of_living": 3,
    "stadium_quality": 6
  },
  {
    "city": "Costa Mesa",
    "state": "California",
    "population": 106069,
    "region": "West",
    "weather": "Warm",
    "latitude": 33.6659,
    "longitude": -117.912,
    "loyalty": 4,
    "media_pressure": 1,
    "cost_of_living": 10,
    "stadium_quality": 5
  },
  {
    "city": "Centennial",
    "state": "Colorado",
    "population": 106007,
    "region": "West",
    "weather": "Warm",
    "latitude": 39.5909,
    "longitude": -104.864,
    "loyalty": 7,
    "media_pressure": 10,
    "cost_of_living": 8,
    "stadium_quality": 6
  },
  {
    "city": "Lee's Summit",
    "state": "Missouri",
    "population": 105892,
    "region": "West",
    "weather": "Warm",
    "latitude": 38.9216,
    "longitude": -94.3848,
    "loyalty": 9,
    "media_pressure": 1,
    "cost_of_living": 7,
    "stadium_quality": 8
  },
  {
    "city": "Downey",
    "state": "California",
    "population": 105384,
    "region": "West",
    "weather": "Warm",
    "latitude": 33.9382,
    "longitude": -118.131,
    "loyalty": 9,
    "media_pressure": 4,
    "cost_of_living": 8,
    "stadium_quality": 9
  },
  {
    "city": "Green Bay",
    "state": "Wisconsin",
    "population": 104726,
    "region": "West",
    "weather": "Warm",
    "latitude": 44.5215,
    "longitude": -87.9866,
    "loyalty": 9,
    "media_pressure": 10,
    "cost_of_living": 6,
    "stadium_quality": 10
  },
  {
    "city": "Suffolk",
    "state": "Virginia",
    "population": 104598,
    "region": "West",
    "weather": "Warm",
    "latitude": 36.6972,
    "longitude": -76.6348,
    "loyalty": 4,
    "media_pressure": 7,
    "cost_of_living": 4,
    "stadium_quality": 9
  },
  {
    "city": "Brockton",
    "state": "Massachusetts",
    "population": 104476,
    "region": "West",
    "weather": "Warm",
    "latitude": 42.0825,
    "longitude": -71.0246,
    "loyalty": 8,
    "media_pressure": 2,
    "cost_of_living": 4,
    "stadium_quality": 7
  },
  {
    "city": "Boulder",
    "state": "Colorado",
    "population": 104414,
    "region": "West",
    "weather": "Warm",
    "latitude": 40.0244,
    "longitude": -105.251,
    "loyalty": 10,
    "media_pressure": 6,
    "cost_of_living": 4,
    "stadium_quality": 9
  },
  {
    "city": "Sandy Springs",
    "state": "Georgia",
    "population": 104210,
    "region": "West",
    "weather": "Warm",
    "latitude": 33.9315,
    "longitude": -84.3689,
    "loyalty": 5,
    "media_pressure": 6,
    "cost_of_living": 7,
    "stadium_quality": 10
  },
  {
    "city": "Fort Myers",
    "state": "Florida",
    "population": 104100,
    "region": "West",
    "weather": "Warm",
    "latitude": 26.6201,
    "longitude": -81.8295,
    "loyalty": 7,
    "media_pressure": 5,
    "cost_of_living": 5,
    "stadium_quality": 9
  },
  {
    "city": "Carmel",
    "state": "Indiana",
    "population": 103890,
    "region": "West",
    "weather": "Warm",
    "latitude": 39.9655,
    "longitude": -86.1484,
    "loyalty": 7,
    "media_pressure": 10,
    "cost_of_living": 6,
    "stadium_quality": 5
  },
  {
    "city": "South Bend",
    "state": "Indiana",
    "population": 103435,
    "region": "West",
    "weather": "Warm",
    "latitude": 41.6766,
    "longitude": -86.2688,
    "loyalty": 10,
    "media_pressure": 7,
    "cost_of_living": 6,
    "stadium_quality": 6
  },
  {
    "city": "Dearborn",
    "state": "Michigan",
    "population": 103271,
    "region": "West",
    "weather": "Warm",
    "latitude": 42.3131,
    "longitude": -83.2115,
    "loyalty": 5,
    "media_pressure": 1,
    "cost_of_living": 5,
    "stadium_quality": 8
  },
  {
    "city": "West Covina",
    "state": "California",
    "population": 103259,
    "region": "West",
    "weather": "Warm",
    "latitude": 34.0559,
    "longitude": -117.91,
    "loyalty": 5,
    "media_pressure": 3,
    "cost_of_living": 3,
    "stadium_quality": 5
  },
  {
    "city": "Yuma",
    "state": "Arizona",
    "population": 103070,
    "region": "West",
    "weather": "Warm",
    "latitude": 32.5163,
    "longitude": -114.522,
    "loyalty": 9,
    "media_pressure": 3,
    "cost_of_living": 8,
    "stadium_quality": 5
  },
  {
    "city": "Renton",
    "state": "Washington",
    "population": 103005,
    "region": "West",
    "weather": "Warm",
    "latitude": 47.4792,
    "longitude": -122.195,
    "loyalty": 7,
    "media_pressure": 5,
    "cost_of_living": 5,
    "stadium_quality": 6
  },
  {
    "city": "Rialto",
    "state": "California",
    "population": 102933,
    "region": "West",
    "weather": "Warm",
    "latitude": 34.1174,
    "longitude": -117.389,
    "loyalty": 7,
    "media_pressure": 2,
    "cost_of_living": 7,
    "stadium_quality": 10
  },
  {
    "city": "Albany",
    "state": "New York",
    "population": 102925,
    "region": "West",
    "weather": "Warm",
    "latitude": 42.6657,
    "longitude": -73.7984,
    "loyalty": 9,
    "media_pressure": 10,
    "cost_of_living": 10,
    "stadium_quality": 6
  },
  {
    "city": "Wichita Falls",
    "state": "Texas",
    "population": 102831,
    "region": "West",
    "weather": "Warm",
    "latitude": 33.9067,
    "longitude": -98.5258,
    "loyalty": 9,
    "media_pressure": 7,
    "cost_of_living": 10,
    "stadium_quality": 7
  },
  {
    "city": "Vacaville",
    "state": "California",
    "population": 102815,
    "region": "West",
    "weather": "Warm",
    "latitude": 38.3586,
    "longitude": -121.969,
    "loyalty": 10,
    "media_pressure": 3,
    "cost_of_living": 3,
    "stadium_quality": 7
  },
  {
    "city": "Highlands Ranch",
    "state": "Colorado",
    "population": 102714,
    "region": "West",
    "weather": "Warm",
    "latitude": 39.5408,
    "longitude": -104.971,
    "loyalty": 6,
    "media_pressure": 5,
    "cost_of_living": 5,
    "stadium_quality": 9
  },
  {
    "city": "Deltona",
    "state": "Florida",
    "population": 101869,
    "region": "West",
    "weather": "Warm",
    "latitude": 28.9051,
    "longitude": -81.211,
    "loyalty": 10,
    "media_pressure": 8,
    "cost_of_living": 7,
    "stadium_quality": 9
  },
  {
    "city": "Quincy",
    "state": "Massachusetts",
    "population": 101673,
    "region": "West",
    "weather": "Warm",
    "latitude": 42.261,
    "longitude": -71.009,
    "loyalty": 4,
    "media_pressure": 6,
    "cost_of_living": 7,
    "stadium_quality": 5
  },
  {
    "city": "Lynn",
    "state": "Massachusetts",
    "population": 101333,
    "region": "West",
    "weather": "Warm",
    "latitude": 42.4748,
    "longitude": -70.962,
    "loyalty": 7,
    "media_pressure": 6,
    "cost_of_living": 4,
    "stadium_quality": 8
  },
  {
    "city": "Boca Raton",
    "state": "Florida",
    "population": 101126,
    "region": "West",
    "weather": "Warm",
    "latitude": 26.3727,
    "longitude": -80.1037,
    "loyalty": 8,
    "media_pressure": 8,
    "cost_of_living": 4,
    "stadium_quality": 10
  },
  {
    "city": "Hesperia",
    "state": "California",
    "population": 101065,
    "region": "West",
    "weather": "Warm",
    "latitude": 34.397,
    "longitude": -117.315,
    "loyalty": 10,
    "media_pressure": 9,
    "cost_of_living": 7,
    "stadium_quality": 9
  },
  {
    "city": "Tracy",
    "state": "California",
    "population": 100936,
    "region": "West",
    "weather": "Warm",
    "latitude": 37.7274,
    "longitude": -121.452,
    "loyalty": 4,
    "media_pressure": 4,
    "cost_of_living": 5,
    "stadium_quality": 6
  },
  {
    "city": "El Cajon",
    "state": "California",
    "population": 100935,
    "region": "West",
    "weather": "Warm",
    "latitude": 32.8017,
    "longitude": -116.96,
    "loyalty": 6,
    "media_pressure": 4,
    "cost_of_living": 5,
    "stadium_quality": 6
  },